State,City,Branch,Address,Latitude,Longitude
ANDAMAN & NICOBAR ISLANDS,SRI VIJAYA PURAM,"Phoenix Bay, Andaman ","GROUND FLOOR VELOCITY HOTEL , OPPOSITE TAMILZHAR SANGAM PHOENIX BAY, SRI VIJAYA PURAM SOUTH ANDAMAN  - 744101.",11.6688511,92.736151
Andhra Pradesh,Visakhapatnam,Gajuwaka,"First Floor, Door No. 26-17-22, Ward No. 61, Chinagantyada, Gajuwaka, Visakhapatnam - 500025, Andhra Pradesh",17.68503,83.20871
Andhra Pradesh,Visakhapatnam,Visakhapatnam,"A.S Raja Complex, Waltair Main Road, Ramnagar - 530002, Andhra Pradesh",17.719927,83.31251
Andhra Pradesh,Anantapur,Anantapur,"D.No: 12-2-958, Sai Nagar, Opp : SIU Church, Next to Baby Hospital, Ananthapur- 515001 Andhra Pradesh",14.67988,77.59818
Andhra Pradesh,Kurnool,Kurnool,"40/581, S.V. Complex, Ground Floor, R.S Road - 518 004, Andhra Pradesh",15.8331,78.03925
Andhra Pradesh,Guntur,Guntur (Gudur),"D. No. 6-9-17, Ratna Deepika Plaza, 9/1, Arundelpet - 522 002, Andhra Pradesh",16.30489,80.44133
Andhra Pradesh,Krishna,Vijayawada,"40-1-55, BVR Square, M. G. Road, Near Benz Circle - 520010, Andhra Pradesh",16.4986,80.65276
Andhra Pradesh,Chittoor,Chittoor,"D. No. 20-114 Naidu Buildings, Naidu Bldg Road, Chittoor 517 001, Andhra Pradesh, Andhra Pradesh",13.21325,79.09483
Andhra Pradesh,Krishna,Gudiwada,"Door No : 15/42, Park Road, Revenue Ward No. 4, Gudivada-521301",16.432083,80.99603
Andhra Pradesh,Y.S.R.,Kadapa (Cuddapah),"D. No. 2-787/788/789, 1st Floor, Sai Ram Towers, Sri Hari Rao Street, Nagarajpet - 516 001",14.46839,78.82423
Andhra Pradesh,Sri Potti Sriramulu Nellore,Nellore,"Ground Floor, Ward no. 16/2,Door no. 169, Pogathota, Nellore - 524001",14.449948,79.983581
Andhra Pradesh,Visakhapatnam,Seethammadhara (VJF EC),"D.No: 55-8-34/17, Ground Floor, MIG – 12, Near Alluri Seetaramaraju  Statue, Seethammadhara, Visakhapatnam – 530013 Andhra Pradesh",17.74053,83.31344
Andhra Pradesh,East Godavari,Sarpavaram,"D. No. 70-1-28/2,  Nagamalli thota Jn, Near HP petrol pump,  Pithapuram Road Kakinada - 533003, Andhra Pradesh",16.98579,82.24023
Andhra Pradesh,Visakhapatnam,Nakapalle,"Main Road NH-5, Opp Police Station, Nakkapalli, Visakhapantnam - 531081, Andhra Pradesh",17.40921,82.71592
Andhra Pradesh,Vizianagaram,Kothavalasa,"D No.7-105 & 7-96/5M Opp Police Station, Viziyanagaram Road, Kothavalasa 535183, Andhra Pradesh",17.90198,83.19082
Andhra Pradesh,East Godavari,Rajamundhry,"76-1-4/1, Lalitha Towers, Gandipuram-2, Rajahmundry, East Godavari, Andhra Pradesh 533103, Andhra Pradesh",17.006,81.78809
Andhra Pradesh,East Godavari,Ramachandrapuram,"Ground Floor, Krishnam Raju Complex, Door No - 28 -1-7/1, Main Road, Ramachandrapuram 533255, Andhra Pradesh",16.83611,82.02926
Andhra Pradesh,Visakhapatnam,"Dwarkanagar, Vizag","Ground Floor, D. No 47-10-24/25,  Sai Trade Centre, Dwarka Nagar, 2nd Lane, Visakhapatnam- 530 016, Andhra Pradesh , Andhra Pradesh",17.72647,83.30549
Andhra Pradesh,Krishna,"One Town Area, Vijaywada","Ground Floor, Venkata Satya Sai Complex,  D No 11-25-37, Vinnakotavari Chowk, One Town,KT Road, Vijayawada-520 001, Andhra Pradesh",16.51662,80.64942
Andhra Pradesh,Guntur,"Kothapet, Guntur","Ground floor, D.No.5-25-521,Next to Vijaya Talkies, Near Head Post Office Kothapet Main Road, Kothapet, Guntur-522 001,Andhra Pradesh",16.296187,80.448955
Andhra Pradesh,West Godavari,Tanuku,"Ground Floor, Shop no 11-15, Ramalingeshwara Complex, Door No. 21-14-7 & 21 14-8, R.P. Road, Tanuku- 534 211, West Godavari Dist, Andhra Pradesh",16.755856,81.683075
Andhra Pradesh,East Godavari,Amalapuram,"Ground Floor, D.No. 1-4-16/1,KNF Road, Amalapuram- 533 201,East Godavari Dist, Andhra Pradesh",16.572193,82.000737
Andhra Pradesh,West Godavari,Chinamiram,"Ground  Floor, Door No.  7-150, Ward No 7, Venkataraju Nagar, Juvvalapalem Road Chinaamiram - 534 204, Bhimavaram Mandal,West Godavari Dist, Andhra Pradesh - 534204, Andhra Pradesh",16.541185,81.502019
Andhra Pradesh,Krishna,Nuzvid,"Ground Floor, D- No 25-205, Sy No. 450/1,Opp. Dwarka Tirumala Theatre, Theatre Road, Nuzvid, Krishna, Andhra Pradesh - 521201, Andhra Pradesh",16.787956,80.850801
Andhra Pradesh,Chittoor,Tirupathi,"Door No. 6-8-1250, 1st Floor, Priya Towers, NGO's Colony, K.T. Road, Near Anna Rao circle, Tirupathi-517501, Chittoor District, Andhra Pradesh",13.647694,79.419341
Andhra Pradesh,West Godavari,Eluru,"Ground Floor, Door No.23 B- 5-93, Ward No.26, Eedavari street, Savithru Complex, Near Prabhavathi Hospital, Ramachandra Rao pet, Eluru, West Godavari, Andhra Pradesh - 534002",16.712921,81.102806
Andhra Pradesh,Visakhapatnam,"MVP Colony, Vishakhapatnam","Ground Floor, Door No. 1-83-2, MVP Colony, Plot No.HIG-87/1, S.No.10, Venkojipalem Waltair ward, Visakhapatnam, ANDHRA PRADESH 530017",17.747131,83.329224
Andhra Pradesh,Chittoor,"Jambbuvarpalli, Bangarupalem, Chittoor","Ground Floor, S.No.6/2,173,Jambbuvarpalli R.V,Jambbuvar Gramapanchayath, Bangarupalem Mandal,Bangarupalem, Chittoor, ANDHRA PRADESH 517416",13.196705,78.916841
Andhra Pradesh,Chittoor,"Palamaner, Andhra Pradesh","First  Floor, Door No. 6-243/1-1, Garuda Complex, Sy No. 349, Gudiyatham Road, Palamaner, Dist : Chittor – 517408, Andhra Pradesh",13.200936,78.746575
Andhra Pradesh,East Godavari,Kakinada,"Ground Floor, House No. 6-1-32, Jawahar Street, Surya Roa Peta, Beside Car World, Kakinada 533001, Andhra Pradesh",16.961665,82.234295
Andhra Pradesh,Srikakulam,Srikakulam,"Ground Floor (Upper Ground Floor), Shop No. G6 & G7, R.S. Devi Complex, Rama Laxman Junction, G.T. Road, Srikakulam- 532001, Andhra Pradesh",18.304495,83.896786
Andhra Pradesh,Visakhapatnam,Akkayapalem Visakhapatnam,"Ground Floor (UGF), Premise No. 45-40-41, Surya’s Lakshmi Ramana Plaza, Akkayapallem, Opp: More Super Market, Visakhapatnam- 530016 Andhra Pradesh",17.738356,83.30154
Andhra Pradesh,Vishakhapatnam,"Madhurawada, Vishakhapatnam","Ground Floor, Premises bearing no.16/4E,Sea Trust Building, 80 Feet Road, P.M.Palem, Madhurawada,  Visakhapatnam, Andhra Pradesh 530041",17.822835,83.362911
Andhra Pradesh,Guntur,Narasaraopet,"Ground Floor, Premises bearing No. 9-6-23, Arundalpet, Narasaraopet-522601, District Guntur, Andhra Pradesh",16.235181,80.045985
Andhra Pradesh,Krishna,"Gurunanayk colony, Vijayawada","Ground Floor, bearing no. 54-15/7 A, Srinivas nagar Bank Colony (Gurunanak Colony), Ring Road, Vijaywada, Andhra Pradesh – 520008",16.512725,80.668146
Andhra Pradesh,Visakhapatnam,Murali Nagar Vishakhapatnam,"Ground Floor, Plot No. 08, Sy No. 54 & 55, Madhavadhara Village, Bank Street, Muralinagar, NR Function Hall, Vishakhapatnam, Andhra Pradesh Pin code 530007",17.746415,83.260998
Andhra Pradesh,West Godavari,Tadepalligudem,"Ground Floor, No. 1-47-5, K.N.Road, Revenue Ward No.12, Tadepalliguddam, District West Godavari, Andhra Pradesh – 534101",16.813924,81.505508
Andhra Pradesh,Krishna,Gollapudi Vijayawada,"Ground Floor, Shop no.164, Mahatma Gandhi Wholesale Commercial Complex, Mahendranagar, Gollapudi, Vijaywada, Andhra Pradesh Pin code 521225",16.326527,80.347586
Andhra Pradesh,West Godavari,Jangareddygudam,"Ground Floor, bearing no.13-3-54, Opp. LIC Office, DCCB Bank near Aswaraopeta Road, Jangareddygudam, District West Godavari, Andhra Pradesh - 534447",17.122319,81.292309
Andhra Pradesh,Guntur,Tenali,"Ground Floor, No.2/2/36, Tadiboyinavari Street, Gandhi Chowk, Tenali, District Guntur- 522201, Andhra Pradesh",16.14197,80.39021
Andhra Pradesh,Y.S.R,Proddatur,"Ground Floor, 22/444, B.S.Complex, Gandhi Road, Proddatur, Kadapa, 516360, Andhra Pradesh",14.747676,78.547133
Andhra Pradesh,Prakasam,Ongole,"Ground Floor, Ward no. 6, block No. 17, T.S.No.684, 685, Kamasastri Veedhi Santhapet, Ongole 523001, Prakasam Andhra Pradesh",15.494623,80.049585
Andhra Pradesh,Chittoor,Tirupati Air Bypass Road,"First Floor, Basava Towers, Premise No. 19-4-123/6, AIR Bypass Road, STV Nagar, 19th Ward, Tirupati, Chittoor, 517501",13.621727,79.422256
Andhra Pradesh,VISAKHAPATNAM,"Lawsons Bay, Vizag","Door No : 4-71-2, Ground Floor, Lawson's Bay Colony, Near BABA Bazar, Visakhapatnam - 530017",17.730907,83.338643
Andhra Pradesh,VISAKHAPATNAM,"Sujatha nagar, Vizag","Shop no 1&2 Phanindra Plaza Door no 7-190/1/14,Chinnamushidiwada, Visakhapatnam-530051  Andhra Pradesh",17.8033075,83.2097433
ANDHRA PRADESH,Krishna,Poranki,"Plot No : 15-113, Ground Floor, Prabhu Nagar, Tumula Center, Poranki, Vijaywada, Andhra Pradesh - 521137",16.477139,80.703815
ANDHRA PRADESH,Rajahmundry,"T Nagar, Rajahmundry","Ground Floor, Door No. 7-26-21/1, Main Road T Nagar (Banks Street), Rajahmundry, Andhra Pradesh - 533101",16.997515,81.772046
ANDHRA PRADESH,Sri Potti Sriramulu Nellore,"Dargamitta, Nellore","D NO 24-3-225, 1ST FLOOR, DWARAKA PLAZA, DARGAMITTA, NELLORE, ANDHRA PRADESH - 524003",14.4331,79.9679
ANDHRA PRADESH,Guntur,BAPATLA,"Indusind Bank Limited, 6-7-6/1, GBC Road, Near Old bus stop, Bapatla, Andhra Pradesh-522101",15.9051251,80.4725074
ANDHRA PRADESH,Kurnool,Nandyal,"SHOP NO 11 TO 15,JAY LAKSHMI PLAZA,H NO 25/505/A SRINIVASA NAGAR, NANDYAL , ANDHRA PRADESH - 518502",15.486325,78.48288
Andhra Pradesh,Kakinada,Specialised Br Kakinada,"Second Floor, 13-1-33/2, Sai Sadan Complex, Near Heveli Dakshin Hotel Main Road, Kakinada, Andhra Pradesh 533005",16.95638,82.234522
Andhra Pradesh,Vijayawada / NTR,Specialised Br Vijyawada Patamata Road,"Ground and First Floor 59A-15-22, Bhadrayanagar, NTR Circle, Patamata Road, Vijayawada, Andhra Pradesh 520010",16.4986673,80.6594754
ANDHRA PRADESH,Vijayawada (Urban),"Lotus Land Mark, Vijaywada","J R R Complex, Plot no :8 Beside Lotus Landmark , Opp Alluri Sitaramaraju Park, Ayodhya Nagar, Vijayawada - 520003  Andhra Pradesh",16.525518,80.631983
Andhra Pradesh,Visakhapatnam,"Specialised Br Akkayyapalem, Visakhapatnam","Second Floor, No. 43-9-226, Sripriya Complex, Main Road Railway New Colony, Akkayyapalem, Visakhapatnam 530016 Andhra Pradesh",17.727688,83.292595
ANDHRA PRADESH,Kurnool,"Saraswati Nagar, Kurnool","87/1376-8, SARASWATHI NAGAR, KALLURU, Kurnool, Andhra Pradesh 518002",15.797562,78.052657
ANDHRA PRADESH,Kavali,Kavali,"Ground Floor, 11-1-36D, 11th Ward, Trunk Road, Opp : MRO Office Main Gate, Kavali, Andhra Pradesh   524201",14.9096274,79.9913005
ANDHRA PRADESH,Vizianagaram,Vizianagaram,"MIG-165,GROUND FLOOR, BABA METTA, VIZIYANAGARAM - 535002  ANDHRA PRADESH",18.1115952,83.4217766
ANDHRA PRADESH,Palacole,Palacole,"GROUND FLOOR, NO.53-7-42,HARISH PLAZA, NEAR RAILWAY GATE, PALACOLE – 534260 ANDHRA PRADESH",16.518485,81.716908
Arunachal Pradesh,Papum Pare,Itanagar,"Ground Floor, # NH-52-A, E Sector, Near AP Civil Secretariat, PO/PS- Itanagar- 791111, Dist, Papum Pare, Arunachal Pradesh",27.092989,93.618336
ARUNACHAL PRADESH,Papum Pare,Naharlagun,"Ground Floor C- Sector, Near Havells & LLoyd Showroom, Naharlagun, Dist: Papumpare, Arunachal Pradesh, Pin-791110",27.101863,93.688371
Assam,Kamrup Metropolitan,Guwahati,"G. S. Road, Bhangagarh, Above Bata Showroom - 781 005, Assam",26.167143,91.765849
Assam,Jorhat,Jorhat,"1st Floor, Madhu Market, J. B. Road, Jorhat, Assam, Pin - 785 001,Assam",26.765146,94.166776
Assam,Sonitpur,Tezpur,"Dugar Mansion, Ground Floor, Main Road, Tezpur - 784001 (Assam),Assam",26.62667,92.79688
Assam,Dibrugarh,Dibrugarh,"Ground Floor, B. L. Enclave, Goenka Market, R. K. B. Path, Dibrugarh, Assam; PIN: 786001",27.481068,94.906764
Assam,Cacher,Silchar,"1st Floor, Cachar Market, Rangirkhari, N. S. Avenue, Silchar -788005, Assam,Assam",24.81243,92.79782
Assam,Tinsukia,Tinsukia,"Ankit Tower, 1st Floor, Chirwapatty Road, Tinsukia - 786125, Assam,Assam",27.4904,95.36384
Assam,Barpeta,Barpeta Road,"1st Floor, Station Road, Barpeta Road, Dist- Barpeta, Assam. 781315, Assam",26.50171,90.96614
Assam,Bongaigaon,Jogighopa,"Ground Floor, Azadi Complex, Kabaitary, PO: A.P. Mills, Dist : Bongaigaon, Assam, Pin-783388",26.244907,90.582726
Assam,Sibsagar,Sibsagar,Ground Floor & First Floor Krishana Bhawan Temple Road Ward no XII Sivasagar-785640 Assam,26.98715,94.63274
Assam,Kamrup Metropolitan,"Zoo Road, Guwahati","Upper Ground floor + 1st Floor,otel Parnil PalaceZoo Road,Tiniali,Guwahati,Assam, Assam",26.174602,91.777085
Assam,Kamrup Metropolitan,Guwahati Beltola,"Ground Floor,# 60,Basistha Road, Beltola,Guwahati,Assam, Assam",26.124785,91.798545
Assam,Dibrugarh,Duliajan,"Ground Floor,Tamuli Mansion,Station Road,Dhuliajan,Dist: Dibrugarh,Assam., Assam",27.36229,95.31185
Assam,Hailakandi,Hailakandi,"Ground & 1st Floor,Holding .75/59 P.O. Ratanpur Road,N S Road,Ward .12,Hailakandi,Assam, Assam",24.68403,92.57156
Assam,Kamrup Metropolitan,Guwahati Fancy Bazar,"Ground & First Floor,Oswal Complex,156 M.G.Road,Near JBS Restaurant,Guwahati,Assam, Assam",26.181299,91.736781
Assam,Lakhimpur,North Lakhimpur,"Ground Floor,Dag 785,Ward 9 of rth Lakhimpur Municipality,Mouza: Lakhimpur,Dist:rth Lakhimpur,Assam, Assam",27.24295,94.10632
Assam,Kamrup Metropolitan,Guwahati Ganeshghuri,"Ground Floor,Protech Center,Ganeshguri Chariali,PO- Dispur,Guwahati,Assam, Assam",26.149767,91.785568
Assam,Golaghat,Numaligarh Refinery Township,"Ekponkagrat,(Telegram) PO: Kanaighat,Numalighar,Dist-Golaghat,Assam, Assam",26.57965,93.78656
Assam,Kamrup Metropolitan,Guwahati Paltan Bazar,"Ground  Floor, Anand Bhawan, Dag No 359, Paltan Bazar, G.S. Road,  Guwahati 781008, Assam, Assam",26.17859,91.75265
Assam,Kamrup Metropolitan,Guwahati Shilpukuri,"Ground Floor, Dag No. 386(Old)/300(New)  Next to Assam Tribune, MRD Road,  PO: Chandmari, Shilphukuri, Dist Kamrup,Guwahati-781003, Assam , Assam",26.18438,91.76923
Assam,Kamrup Metropolitan,"Maligaon, Guwahati","Vishal Housing Complex, Near Overbridge, Maligaon, Guwahati,  781012 Assam, Assam",26.15826,91.69158
Assam,Kamrup Metropolitan,Guwahati Ambari,"Ground & First Floor, Agni Shanti Business Park, GNB Road, Ambari, Ward No 33, Dist. Kamrup, Guwahati, Assam, Assam",26.185253,91.755506
Assam,Kamrup Metropolitan,Guwahati Athgaon,"1st Floor, Nizami Arcade, Sati Jaymati Road, Near Mosque, Athgaon, Guwahati- 781001, Assam",26.173985,91.739883
Assam,KOKRAJHAR,Kokrajhar,"Ground and First Floor, Building of Maina Devi Sarawgi,  JD Road, BTAD, Kokrajhar Assam – 783370",26.404472,90.268331
Assam,KARIMGANJ,Karimganj,"Ground Floor, Near Petrol Pump, Silchar Road, beside A.S.T.C Bus Stand, Ward no.25, Karimganj  PIN: 788710,Assam",24.864517,92.369882
Assam,Dhubri,Dhubri,"Ground Floor, Ashok Vatika, N. S. Road, Ward No. 4, Dhubri, Assam, PIN: 783301",26.018524,89.988104
Assam,Nagaon,"NAGOAN, ASSAM","Ground Floor, Sarkar Bhawan, A T Road, 37 National Highway, Haibargaon, Nagaon, Assam - 782002",26.351586,92.678483
Assam,Kamrup Metropolitan,Kalapahar Guwahati,"Ground Floor, Shrishti Medicos, Pan Dokan Bus Stoppage, Lokhra Road, Bhaskar Nagar, Kalapahar, Guwahati, Pincode-781 018, Assam.",26.150171,91.741179
ASSAM,Karbi Anglong,"Diphu, Assam","Ground Floor, C/o Home Needs, Stadium Road, Diphu Market, Diphu, District Karbi Anglong, Assam 782460",25.846472,93.436838
ASSAM,Guwahati,"Hatigaon, Guwahati, Assam","GROUND FLOOR, HATIGAON MAIN ROAD, PO & PS : HATIGAON, KAMRUP(M), ASSAM, PIN-781038",26.134425,91.785837
ASSAM,Haflong,Haflong,"GROUND FLOOR, JING SE HANGKHON, NR AUTONOMUS COUNCIL, HAFLONG, DIST: DIMA HASAO, ASSAM, PIN – 788819",25.163417,93.017917
Bihar,Patna,Patna,"SR02, Rajendra Ram Plaza, Exhibition Road - 800001, Bihar",25.6142,85.14308
Bihar,Bhojpur,Kaem Nagar,"Ground Floor, Arrah - Patna Highway Road Near City Plaza Market or Urdu School, Vill + Post - Kaemnagar PS - Koilwar, Dist : Bhojpur Bihar - 802314",25.58717,84.72557
Bihar,Patna,"Rukanpura, Patna","Ground Floor, Rajhans Niketan, Bailey Road, Rukanpara (Near Canal), Patna - 800 014, Bihar",25.60918,85.06718
Bihar,Patna,"Boring Road, Patna 2","Ground Floor, Vishwas Amawan House, Jamuna Apartments Complex ( front Block) Boring Road, Patna, Bihar 800 013, Bihar",25.615938,85.114622
Bihar,Vaishali,Bhagwanpur,Portion Of Ground Floor & First Floor Property At Raja Market Purbi Bazar Bhagwanpur - 844 114 Vaishali Dist Bihar,25.85634,85.29591
Bihar,Siwan,Andar,"First Floor, Asaon Road, Near Police Station, Andar, Siwan Dist, Bihar 841 231, Bihar",26.10264,84.29103
Bihar,Patna,"Rajendra Nagar, Arya Kumar Road, Patna","Ground Floor, Plot No 158, Block-A, Arya Kumar Road, Rajendra Nagar, Patna, Bihar 800 016, Bihar",25.60826,85.15937
Bihar,Patna,"Kankarbagh, Patna","Ground Floor- DS-20, Gayatri Mandir Road, Kankerbagh Colony, Patna, Bihar 800 020, Bihar",25.59896,85.15453
Bihar,Patna,"Ashiana Nagar, Patna","Ground Floor,10,Abhinav Apartments, Main Ashiana Digha Road,Near Passport Office,Ashiana Nagar,Patna,Bihar 800014, Bihar",25.62038,85.07979
Bihar,Patna,"Khazanchi Road, Patna","Ground Floor,Paras Bhawan,Khazanchi Road,Ward No 9,PO Bankipur,Patna,Bihar 800004, Bihar",25.61731,85.16251
Bihar,Patna,"Anishabad, Patna",Ground Floor Radhika Complex Ballambi Chowk more Khagul Road Anishabad Patna -800 002 Bihar,25.58381,85.09254
Bihar,Bhagalpur,Bhagalpur,"Ground Floor Triveni Apartments Dr. Rajaendra Prasad Road, Mohalla Khalifa Bagh Bhagalpur-812 002 Bihar",25.25,87
Bihar,Patna,"Patna City, Patna","Ground floor +First floor, Holding No. 110/115 and 111/116, Plot No. 764 & 765, Mohalla Kucha Ganesh Chowk, Ashok Raj Path, Patna City, Bihar, Bihar",25.59121,85.23514
Bihar,Muzaffarpur,Muzaffarpur,"Jawaharlal Road, Ward No-20, Choti Saraiyaganj, Muzaffarpur, Bihar. 842 001, Bihar",26.1258,85.3896
Bihar,Patna,Bihta,"Ground Floor Bihta Gadh Par, Bihta Gram Panchayat, P.O. and P S Bihta,Dist:  Patna,Bihar, Bihar",25.57332,84.87055
Bihar,Samastipur,Samastipur,"Ground Floor, Ruby Mansion, NH-103, Mohanpur Road Opp. BRB College, Samastipur- 848 101, Bihar",25.87342,85.78243
Bihar,Patna,"Saguna More, Patna","Ground Floor, Plot No 115, Surya BP Commercial Centre, Danapur,  Saguna More, Patna- 801 503, Bihar",25.62216,85.041119
Bihar,Gaya,Gaya,"Ground Floor, NANDAN NIKETAN, Nagmatia Road, Ward no. 4, plot no. 50, Dhurki Mohalla, Makhlautganj, Swarajpuri Road, Gaya -823001, Bihar",24.792949,85.000212
Bihar,Darbhanga,Darbhanga,"Ground Floor, Vikram Chamber, Mirzapur, PO & PS- Darbhanga -864004, Dist:  Darbhanga, Bihar",26.151015,85.898667
Bihar,Jehanabad,Jehanabad Bihar,"Ground  Floor, Rajeshwari Market Complex, Horilganj, Near Dardha bridge, Patna - Gaya Road, Jahanabad, BIHAR 804408",25.204032,84.993204
Bihar,Begusarai,Begusarai Bihar,"Ground Floor, Holding No.183,  Ward No. 15/22, Circle No. Begusarai,Radha Krishna Market, Patel Chowk, Begusarai, BIHAR 851211",25.417084,86.125716
Bihar,Bhojpur,Arrah Bihar,"GROUND  FLOOR, HOLDING NO.502, KARMAN TOLA, STATION ROAD, WARD -20, NEAR SHIV NARAYAN LAL PETROL PUMP, ARRAH, BHOJPUR, BIHAR 802301",25.55838,84.668509
Bihar,Saran,"Chhapra, Bihar","Ground Floor, Saran Complex,  Ward No. 18, Circle No. 16, Holding No. 737/717, situated at Dak Bunglow Road, Parganan: Manjhi,Chhapra, BIHAR 841301",25.779949,84.739735
Bihar,Gaya,"Bela, Bihar","Ground Floor, House of Mr.Ajay Kumar Chaurasia, Plot No. 1289,Village – Bela, PS- Bela Ganj, Dist:Gaya, BIHAR, 804403",24.968179,84.972809
Bihar,Patna,"Sampatchak, Patna","First Floor, House of Kapil Dev Singh Yadav, Sampatchak Bazar, Thana: Gopal Pur, Plot No.1482, Khata No. 300, PO: Sona Gopal, Dist : Patna Bihar- 800007",25.532131,85.176727
Bihar,Bhojpur,Jagdishpur,"Ground Floor, Lal Babu Complex, Near Thana Jagdishpur, Ward No.14 (New), Mohalla Jagdishpura, Holding No. 146, Dist; Bhojpur – 802158, Bihar",25.472943,84.424613
Bihar,Patna,"Pataliputra Colony, Patna","Ground Floor & First Floor, Thana No.02, Plot No. 157, Patliputra Colony, Patliputra, Pin code 800013, Patna, Bihar",25.628567,85.108302
Bihar,Patna,"Kanti Factory Road, Patna","Ground Floor (UGF), Plot No. 712, Kanti Factory Main Road, Mahatma Gandhi Nagar, Kankarbagh, Patna, Bihar, Pin- 800020",25.595108,85.168142
Bihar,Nalanda,Bihar Sharif,"Ground and First Floor, Holding No. 469, 470 & 471, Ranchi Road, Near LIC Building, Bihar Sharif, Dist: Nalanda, Bihar 803101",25.290504,85.52376
Bihar,Siwan,Siwan,"Ground Floor, Dwivedi Complex, Shastri Nagar, Plot No.1643 and 1645, Near Head Post Office, Mouza : Kagji, Paragana – Bara, PS: Siwan, Thana No.231, Siwan, District Siwan, Bihar Pin code 841226",26.225779,84.354835
Bihar,Patna,Frezer Road Patna,"Ground Floor, Sheohar Sadan, Frezer Road, Patna, Bihar, PIN: 800001",25.6128,85.1391
Bihar,Muzaffarpur,Brahamapura Muzaffarpur,"Ground Floor, ABC Tower, 2- Brahamapura Main Road, Muzaffarpur, Bihar, PIN: 842003",26.134233,85.365091
Bihar,Patna,Lohia Nagar Kankarbagh Patna,"Ground Floor, U-446, Lohia Nagar, Housing Colony, Kankarbagh, Patna, PIN: 800020, Bihar",25.593353,85.14883
Bihar,Purnia,Purnea,"Ground Floor, Drug House 1947, Beside Rajlakshmi Hotel, Bhatta Bazar, Kalibari Chowk, Purnea, Bihar, PIN: 854301",25.771307,87.476445
BIHAR,Rohtas,Sasaram,"OPP PRAKASH PETROL PUMP,OLD GT ROAD, SASARAM,ROHTAS - 821115  Bihar",24.954698,84.029626
BIHAR,Patna,"Gola Rd, Patna","Indusind Bank Limited, Ground Floor & First Floor, Opp Sidhi Vinayak Hospital, Gola Road, Plot no-12, Patna-801503 Bihar",25.6192639,85.0557589
Bihar,Nawada,Specialised Br Nawada,"No. 121, 2nd Floor, Above Sahara India Office, Rajendra Nagar, Near Bihar Bus Stand, Nawada, Bihar 805110",24.892223,85.541075
Bihar,Vaishali,Specialised Br Hajipur,"2nd Floor, Ramdeo Complex, Bearing Plot No.734, Dak Bunglow Road, Anwarpur, Hajipur, Vaishali, Bihar 844101",25.696848,85.213651
Bihar,Saharsa,Specialised Br Saharsa,"1st Floor, Khan Market, Purab Bazar, Hatia Gachi, Saharsa, Bihar 852201",25.876834,86.604826
Bihar,Motihari,Specialised Br Motihari,"1st Floor, Piyush Tower, Ward No. 38, Hawai,Chhota Bariyarpur, Chini Mill Road, Motihari 845401",26.634088,84.91019
Bihar,Gopalganj,Specialised Br Gopalganj,"1st Floor, Shahi Complex, Near Minj Stadium, Post office Road, Gopalganj, Bihar 841428",26.468309,84.440715
Bihar,Bettiah,Specialised Br Bettiah,"1st Floor, C/o Bhagwat Cement Store, Opposite Indian Bank, Supriya Road, Bettiah, West Champaran, Bihar 845438",26.804991,84.51743
Bihar,Darbhanga,Specialised Br Darbhnaga,"First Floor, Raj Complex, Station Mirjapur Road, Darbhanga, Bihar 846004",26.152982,85.903957
Bihar,Aurangabad,Specialised Br Aurangabad,"1st Floor, Raj Bhawan, Khata No 10, Plot No. 175, Tikari More, Near overbridge, NH - 2, In front of J.K. Motars, Aurangabad, Bihar 824101",24.743618,84.365714
Bihar,Sitamarhi,Specialised Br Sitamarhi,"2nd Floor, Plot No. 906, Ramjanki Palace,  Dumra Road, Rajopatti Near IB, Sitamarhi, Bihar 843302",26.583725,85.505795
Bihar,Rohtas,Specialised Br Sasaram,"1st Floor, Khata No. 40, Plot No. 346, Old G.T. Road,  Near Kannaudiya Petrol Pump, PO & PS Sasaram, Rohtas, Bihar 821115",24.954837,84.030456
Bihar,Madhubani,Specialised Br Madhubani,"1st Floor, Suratganj, Ward No. 15/17, Near Town Club Field, Madhubani, Bihar 847211",26.348683,86.073574
Bihar,Bhojpur,Specialised Br Arrah,"3rd Floor, Plot No. 277 & 278, Mauli Tower, K G Road, Mauli Kotthi, Above Bank of India, Bhojpur,  Arrah, Bihar 802301",25.561296,84.671328
Bihar,BHAGALPUR,Specialised Br BHAGALPUR,"1st  Floor, Ambika Sadan, Lalbagh Colony (Tilkamaanjhi),  Near Police Line, PO–PS Tilkamanjhi, Bhagalpur, Bihar 812001",25.252726,86.995957
BIHAR,Patna Rural,Kadamkuan,"INDUSIND BANK GROUND FLOOR, SHOP 1-2, RAJENDRA PATH, PLOT NO. 733-734, STATION ROAD, KADAMKUAN PATNA BIHAR 800003",25.6096381,85.148374
BIHAR,PATNA,Danapur,"GROUND FLOOR , CHHOTI MACHUA TOLI, MAIN ROAD, NEAR DAV HIGH SCHOOL, WARD NO-18 , DANAPUR PATNA 801502 BIHAR",25.638526,85.051189
Chandigarh,Chandigarh,Chandigarh,"S.C.O. No. 53-54, Sector 8-C, Madhya Marg Chandigarh - 160 018, Chandigarh",30.73854,76.79348
Chandigarh,Chandigarh,"Sec 35, Chandigarh","S.C.O. No. 359-360, Sector-35B, Chandigarh 160035, Haryana., Chandigarh",30.72424,76.76395
Chandigarh,Chandigarh,"Sec. 27, Chandigarh","Ground,First & Second floor,SCO # 27,Sector 27-C,Chandigarh, Chandigarh",30.72143,76.80023
Chandigarh,Chandigarh,"Sec. 16, Chandigarh","Ground,First & Second floor,SCO # 20,Sector 16- D,Chandigarh, Chandigarh",30.74766,76.77612
Chandigarh,Chandigarh,"Sec.32, Chandigarh","SCO No- 62,Ground,First & Second Floor, Sec- 32-C, Chandigarh-160031, Chandigarh",30.70683,76.77513
Chandigarh,Chandigarh,"ManiMajra, Chandigarh","Ground Floor, SCO No. 46, Pocket 1, Manimajra, Chandigarh - 160101, Chandigarh",30.716,76.83165
Chandigarh,Chandigarh,"Sec.47, Chandigarh","Ground, First and Second Floor,SCO No.95, Sector 47D,Chandigarh, Chandigarh",30.69557,76.76836
Chandigarh,Chandigarh,Chandigarh Indl Area I,"Ground Floor, The Statement, Plot No 149, Industrial Area, Phase-I, Chandigarh, Chandigarh",30.70056,76.80377
Chandigarh,Chandigarh,"Sec. 40, Chandigarh","Ground Floor SCO-224 & 225 & Basement of SCO 224, Sec 40 D, Chandigarh, Chandigarh",30.73755,76.732686
Chandigarh,Chandigarh,"Sec. 22, Chandigarh","Ground Floor, SCO No- 1100-1101, Sector- 22-B, Chandigarh-160022, Chandigarh",30.731966,76.77612
Chandigarh,Chandigarh,"Sector 20D, Chandigarh TriCity","Ground, First and Second Floor,  SCO No 1, Sector 20 D,  Chandigarh - 160020, Chandigarh",30.722745,76.778789
Chandigarh,Chandigarh,"Sector 38D, Chandigarh TriCity","Ground and Basement Floor, SCO-301 & 302, Sector-38D, Chandigarh-160038.",30.745533,76.743631
Chandigarh,Chandigarh,"Sector 26, Chandigarh","Ground Floor, SCO-36, Sector -26, Madhya Marg, Chandigarh - 160019, Chandigarh",30.728545,76.802088
Chandigarh,Chandigarh,Sector 9-C Chandigarh,"Ground Floor,  S.C.O 145 & 146, Sector 9-C,  Madhya Marg, Chandigarh, PIN: 160009",30.7422794801684,76.7899401022802
Chandigarh,Chandigarh,Sector 19 Chandigarh,"Ground & First Floor, SCF No. 38, Sector-19, Chandigarh Pin 160019",30.729568,76.791279
Chandigarh,CHANDIGARH,"Industrial Area, Phase 2, Chandigarh","SCO-10,Industrial Area Phase 2, Chandigarh - 160002",30.69708,76.783092
Chhattisgarh,Raipur,Raipur,"Krishna Complex, Lal Bahadur Shastri Square, Jawahar Nehru Road - 492 001, Chhattisgarh",21.24653,81.64165
Chhattisgarh,Surguja,Ambikapur,"Ground Floor Plot No 374, Deviganj Road, Khuten Para, Ambikapur Dist. Surguja, Chhattisgarh 497001, Chhattisgarh",23.13164,83.18202
Chhattisgarh,Bastar,Jagdalpur,"Ashwini Rajkumar Complex, Geedam Road, Jagdalpur - 494 001, Chhattisgarh",19.08572,82.01786
Chhattisgarh,Bilaspur,Bilaspur,"Ground Floor, Building of Anand Khemka, Main Road, Vyapar Vihar, Bilaspur, Chhattisgarh-495001",22.068827,82.146846
Chhattisgarh,Raipur,Tilda Newra,"Station Road, Near Vijay Lodge, Tilda - 493114, District- Raipur,Chhattisgarh",21.55298,81.7958
Chhattisgarh,Raipur,Bhatagaon,"Plot No B-75, Ring Road No.1, Near Siddheshwari Temple, Bhatagaon, Raipur Dist., Chattisgarh 492001, Chhattisgarh",21.21807,81.62347
Chhattisgarh,Uttar Bastar Kanker,Kanker,"Ground + 1st Floor premises at Shop No 23- 24, "" Ambedkar Shopping Complex"", Majhapara,Kanker- 494 334, Chhatisgarh,Chhattisgarh",20.271,81.49176
Chhattisgarh,Balodabazar,Bansankra,"HNo-57, Patwari Hal no- 12, Tehsil- Simga, PS & PO- Bansankara, District- Raipur, Chattisgarh 492101, Chhattisgarh",21.67773,81.73771
Chhattisgarh,Durg,Dhanora,"Ground Floor, Khasra no 744, Village: Dhanora, PO: Hanoda, Teh& Dist: Durg, Chhatisgarh - 491001, Chhattisgarh",21.14419,81.3207
Chhattisgarh,Raipur,Biladi,"H.No.467, Patwari Hall No.7, Village Biladi, Tehsil Tilda, Chhaattisgarh 493114, Chhattisgarh",21.57543,81.77902
Chhattisgarh,Raipur,Kendri,"Ground Floor, Khasra No.581/21 Vill. Kendri Tauhsil Abhanpur,Dist. Raipur, Chattisgarh - 493661, Chhattisgarh",21.09997,81.73848
Chhattisgarh,Balodabazar,Simga,"Ground Floor, House No 1015/1 & 1017/1,  R.B. Road, Appu Chowk, Village Simga,  Block: Bhatapara Dist: Raipur,  Chhatisgarh - 493101, Chhattisgarh",21.63918,81.70624
Chhattisgarh,Raipur,Abhanpur,"Ground Floor, Khasra No.779/1, Patwari Hal No.131, Mouza Url, Near Bus Stand, Bank Street, Abhanpur, Dist: Raipur, Chhatisgarh 493661, Chhattisgarh",21.0489,81.73647
Chhattisgarh,Durg,Durg-Bhilai Nagar/Bhilai,"Ground floor+First floor, Plot No 1& 10, Block No.33, Dakshin Gangotri, Ward No 3,P.O. & P.S. Bhilai Durg Dist:Durg,Chhatisgarh, Chhattisgarh",21.20888,81.37806
Chhattisgarh,Raipur,Gujara,"Ground Floor,Village:Gujra,Block:Arang,Dist.:Raipur,P.S.Mandir Hasaud,State:Chattisgarh, Chhattisgarh",21.19418,81.858
Chhattisgarh,Raipur,Parsada,"Ground Floor,Parsada Bazar Chowk,Village:Parsada,Block: Arang,P.S. Mandira and,PO:Pallod,Dist.:Raipur.Chattisgarh, Chhattisgarh",21.20377,81.84479
Chhattisgarh,Raipur,Tuta,"Ground Floor,Village :TUTA,Block:Abhanpur,Dist. Raipur,Chattisgarh, Chhattisgarh",21.15377,81.74591
Chhattisgarh,Raipur,"Shankarnagar, Raipur","Ground Floor, Shop No 1- 8, Jeevan Apartments Khasra No.478, Shankar Nagar, Raipur- 492007, Dist: Raipur, Chhattisgarh, Chhattisgarh",21.25174,81.66407
Chhattisgarh,Koria,Manendragarh,"Ground Floor, Property Plot No. 188/2, Main Raod, Near PWD Office, Manendragarh, Dist: Koriya, PIN: 497442, Chhattisgarh",23.21048,82.20153
Chhattisgarh,Raipur,"Pandri, Raipur","Ground Floor, No 12/38/1,Govind Nagar, Opp New Bus Stand, Jeevan Bima Marg, Pandri, Raipur- 492004, Chattisgarh.",21.251695,81.647892
Chhattisgarh,Raipur,"MG Road, Raipur","Ground floor, Khasra No. 431, Municipal No. 37/394, P.H. No. 62, R.I.C. Raipur-12-Raipur, Pt. Jawaharlal Nehru Ward No.37, Tehsil and District Raipur (CG), Guru Nanak Chowk, M.G. Road, Raipur – 492 001, Chhattisgarh",21.2477233,81.6330039
Chhattisgarh,Raipur,"GE Road, Raipur","Ground Floor, Dutta Complex, Opp. Anupam Gardens, G.E. Road, Raipur- 492 001, Chhattisgarh",21.244107,81.609395
Chhattisgarh,Durg,"Nehru Nagar, Bhilai","Shyam Shakuntal Complex, Near Krishna Public School, Main Road, Plot No. 04, Block No. 2, Nehru Parisar, Ward No. 2, Nehru Nagar, P.O & P.S. Bhilai, Tehsil & Dist: Durg, Chattisgarh 490020",21.199741,81.324102
Chhattisgarh,Raipur,"Pachpadinaka, Raipur","Pujari Chambers, Block B-1, Ground Floor, Panchpedinaka, Raipur, Pin- 492001",21.2226148,81.6465494
Chhattisgarh,Bijapur,Kutru,"Ground Floor, Plot No- 210, Mangal Bhawan, Village- Kuturu,Tehsil- Bhairamgarh, District – Bijapur, Chhattisgarh- 494444",19.082324,80.816373
Chhattisgarh,Raipur,Amlidih Raipur,"Upper Ground Floor, Shop No.3 & 4, Arora Tower, Ward No.46, Mouza: Amlidih, Dist:Raipur, Pincode – 492001, Chhatisgarh",21.22282,81.67085
Chhattisgarh,Bijapur,"Gudma, Bijapur","Ground Floor, Premises of Rajeev Gandhi Seva Kendra, Plot No.250, PO – Gudma, PS Naimed, Tehsil- Bhairamgarh, Dist –Bijapur, Chhattisgarh",18.80576,80.80481
Chhattisgarh,Durg,Durg Chhattisgarh,"Upper Ground Floor, Plot No. 3/20, Station Road, Opposite Hotel Alka Palace, Ward No.- 24, Durg, Chhattisgarh, Pin- 491001",21.190449,81.28492
Chhattisgarh,Raipur,Naya Raipur,"Ground & First Floor, House No. P4A / 237, Sector -27, Naya Raipur Township Vill. Nawagaon, P.H. No.71/16, R.C. Mandir Hasaud, Tahsil Arang, Dist. Raipur -492101, Chhattisgarh",21.142781,81.784445
Chhattisgarh,Raipur,"Devendra Nagar, Raipur","Ground Floor, C-1, HIG-Sector-1, Devendra Nagar, Raipur, Chhattisgarh, Pin- 492001",21.257017,81.641655
Chhattisgarh,Korba,Korba,"Ground Floor, Plot No- 97, Transport Nagar Stadium Road, Beside Vishal Mega Mart, Korba, Pin code 495677 Chattisgarh",22.357799,82.706308
Chhattisgarh,Raigarh,Raigarh,"Ground Floor, House No. 906, Khasra-202/1 at Jagatpur, PO : RAIGHAR, PS : RAIGHAR, Chattishgharh, Pin code 496001",21.909706,83.390267
Chhattisgarh,Sukma,Maraiguda,"Ground Floor, Maraiguda, PO: Golapalli, Tehsil: Konta, District Sukma, Chhattisgarh PIN: 494114",18.01749,81.390869
Chhattisgarh,Raipur,"Mowa, Raipur","Ground Floor,  Chandra Square, Mowa, Main Road, Raipur, Chhattisgarh, PIN: 492014",21.268856,81.673345
Chhattisgarh,Raipur,Birgaon,"Ground Floor, D M Tower, Birgaon, Beside RTO of Banjarai, Mata Mandir, Raipur, Chattisgarh, PIN: 493221",21.305112,81.635283
Chhattisgarh,Raipur,Arang,"Ground Floor, Arang Main Road, Near Old Mandi, Indra Chowk, Arang, District Raipur, Chhattisgarh, PIN: 493441",21.1954516,81.9592728
Chhattisgarh,Raipur,Baloda Bazar,"Ground Floor, Hotel Ansh, Ambedkar Chowk, Lavan Road, Baloda Bazar, Chhattisgarh, PIN: 493332",21.656898,82.163793
Chhattisgarh,Rajnandgaon,Dongargarh,"Ground Floor, Gandhi Ward No. 16, Mahaveer Para Road, PO & PS Dongargarh, District Rajnandangaon, Chhattisgarh, Pin 491445",21.187373,80.751741
Chhattisgarh,Bilaspur,Sarkanda Bilaspur,"Ground Floor, R Square, Opp. R.K. Petrol Pump, Ashok Nagar, Seepat Road, Sarkanda, District Bilaspur Chattisgarh Pin code 495006",22.097746,82.159291
Chhattisgarh,Durg,Charoda,"Ground Floor, Plot No. 13A/6, Uttar Vasundhara Nagar, GE Road, Charoda-490021 PO : Bhilai-3, Charoda Chhattisgarh",21.208369,81.430385
Chhattisgarh,Durg/Raipur,"Risali, Bhilai","Ground Floor, Civic Centre Bhilai, Plot No D/1, Street No 3, Ward No.-63, Ashish Nagar West, Rishali, POCivic Center, P.S. Nebai Thana, Bhilai , Chhattisgarh 490006",21.160903,81.335037
CHHATTISGARH,Raipur,"New Rajendra Nagar, Raipur","Ground floor C-90, near Govind Sarang Bhavan, New Rajendra nagar, Raipur – 492006  Chhattisgarh",21.2214,81.6624
CHHATTISGARH,Raipur,"Teliabandha, Raipur","IndusInd Bank Ltd, Ground Floor,Ring Road No.1, Opp:Airtel Office,Telibandha,Raipur Chhattisgarh - 492001",21.237416,81.669907
CHHATTISGARH,Raipur,"Shailendra Nagar, Raipur","Upper Ground Floor, C-53 Shailendra-Nagar, Raipur, Chhattisgarh, 492001",21.134102,81.392
CHHATTISGARH,Raipur,"Dumartarai, Raipur","GROUND FLOOR,BLOCK-E, L.K.CORPORATE TOWERS, DUMARTARAI, RAIPUR (CHHATTISGARH) - 492015",21.196243,81.693376
CHHATTISGARH,Rajnandgaon,Rajnandgaon,"IndusInd Bank Limited, Ground Floor, Mahesh Nagar, Opp Jeevan Rekha Hospital Rajnandgaon-491441 Chhattisgarh",21.084299,81.021095
CHHATTISGARH,Durg,"Ganj Para, Durg","GROUND FLOOR, EKTA VIHAR GUNJPARA, DURG,CHHATTISGARH - 491001",0,0
CHHATTISGARH,Surajpur,Surajpur,"NH -43 BESIDE BANK OF MAHARASTRA RIC SURAJPUR, TEHSIL AND DISTRICT SURAJPUR – 497229 CHATTISGARH",23.211547,82.876232
CHHATTISGARH,Raipur,Naharpara,"INDUSINDBANK LTD. ,GROUND FLOOR, H SQUARE, HOTEL SHIVAM RESIDENCY, NAHAR PARA, RAIPUR, CHHATTISGARH - 492001",21.2536128,81.6347051
CHHATTISGARH,Bilaspur,"Mangla Chowk, Bilaspur","BESIDE GRAMIN BANK , OPP: MINOCHA COLONY , MUNGELI MAIN ROAD, PH NO.35,RIC BILASPUR, TEHSIL AND DISTRICT:BILASPUR , CHHATTISGARH - 495001",22.0924,82.1267
CHHATTISGARH,Bilaspur,"Tarbahar Chowk, Bilaspur","GROUND FLOOR, BESIDE HOTEL RASOI INN, STATION ROAD, TARBAHAR CHOWK, BILASPUR – 495001 CHHATTISGARH",22.070428,82.16202
Dadra & Nagar Haveli,Dadra & Nagar Haveli,Silvassa,"Shop No.6, Silvassa - Vapi Road, Silvassa - 396 230, Dadra & Nagar Haveli",20.27729,73.00175
Dadra & Nagar Haveli,Dadra & Nagar Haveli,Dadra,"Ground Floor, Shop No 4 Ras Avenue Survey No. 11/2/2/2 & 11/3/1 Opp. Le Royal Hotel, Near Dadra Garden, Vapi- Silvassa Road, Dadra- 396 193 ( U.t Of Dadra & Nagar Haveli)",20.314058,72.967811
DADRA & NAGAR HAVELI,Silvassa,NAROLI (CT),"SHOP NUMBER 21,22,23, ORION IMPERIA NAROLI CHAR RASTA, SILVASSA  DAMAN AND DIU AND DADARA NAGAR AND HAVELI - 396230",20.276415,72.941673
Daman & Diu,Daman,Daman,"Ground Floor,agaarDMC 14-43/B,Survey .432/1(4),Dilip Nagar,Tin Batti,Nani Daman,Daman ( U.T.), Daman & Diu",20.41721,72.83364
Delhi,North West,Sanjay Gandhi Transport Nagar,"Indusind bank,CW-235 1st floor Near IOCL Pumps, Sanjay Gandhi transport nagar,Delhi",28.742136,77.150405
Goa,South Goa,Madgaon,"Chaze Art Gallery, Nr. Confidant, Abade Faria Road - 403 601, Goa",15.27605,73.95727
Goa,North Goa,Panjim (Panaji),"Smit Vandan, Near Vivanta, St. Inez Junction, Panaji, Goa 403001",15.492879,73.820663
Goa,South Goa,Sanvordem,"UG 5, 6 & 7, Vinayak Plaza, Curchorem, Sanvordem, Goa - 403 706, Goa",15.26927,74.11842
Goa,North Goa,Porvorim,"Ground Floor, Akshay Bunglow, Sangelkars, Opp. Tata Motors, Near O’Coquiero Junction, NH-17, Panaji-Mapusa Road, Porvorim, Bardez Porvorim, Goa 403521",15.527222,73.824083
Goa,North Goa,Candolim (old Calangute),"Ground Floor, Solitude, Near Hotel Novotel, Codolim Main Road, Anna Vaddo, Candolim, North Goa- 403 515, Goa",15.526585,73.765878
Goa,North Goa,Mapusa,"Ground Floor, JMBs  Capital, Mapusa Canca Bypass Road,  Near Kavlekar Towers, Khorlim, Mapusa, Bardez, Goa - 403507, Goa",15.591541,73.80762
Goa,South Goa,Vasco,"Ground Floor, Vinod Mension, Maharaja Hotel, Chalta No. 37 to 41, P T Sheet No. 104, Opp. Hindustan Petroleum Tanks,  Rua Leopold, Vasco Da Gama, South Goa, Goa - 403802",15.397185,73.808684
Goa,North Goa,Ponda,"Ground Floor and Mezzanine Floor  Shop No.AG1, AG2, AG3, AG4 and AG5 Anant-Laxmi A,  Survey No. 189/8, Ponda- Margao Road, Tisk, Ponda – 403401, Goa",15.392538,74.002741
Goa,North Goa,Siolim,"Ground Floor, Shop no 15, 15 A and 16, Naifer Atlantis, Opp Navtara Hotel, Siolim Pincode 403517 Goa",15.626782,73.765572
GOA,North Goa,"Patto, Panaji","GROUND AND MEZANINE FLOOR, SHOP NO.1, KAMAT TOWERS, EDC COMPLEX, PATTO PLAZA, PATTO, PANJIM GOA - 403001",15.494115,73.835537
GOA,South Goa,Colva -Salcette,"Indusind Bank Ltd. Ground floor,Nicolau Rodrigues building, Shop no 3,4,5  Colva, Goa -  403708",15.2817181,73.920574
GOA,South Goa,Quepem,"INDUSIND BANK LTD, GROUND FLOOR, GRACE DELIGHT, SHOP NO. 1 AND 2, CUSMANE, QUEPEM, GOA - 403705",15.216555,74.0658809
GOA,North Goa,Bicholim,"INDUSIND BANK LIMITED, SHOP # G1,G4, JAIWANT COMPLEX, SONAR PETH, BICHOLIM, NORTH GOA - 403504",15.589305,73.945326
Goa,Mormugao,Specialised Br Vasco Da Gama,"T-2 House No. 14/264/A(15), Third floor, Vasco Citi Centre, Swatantra Path, Vasco Da Gama, Goa 403802",15.3971061,73.8123206
GOA,CHINCHINIM MARGAO,CHINCHINIM,"INDUSIND BANK LTD. GROUND FLOOR SHOP NO 1 CASALIVRIMENTO, H NO .1074-1 BETUL MADGAON ROAD, CHINCHINIM ,SOUTH GOA - 403715",15.20299,73.9775723
Gujarat,Ahmedabad,Ahmedabad,"World Bussiness House, Nr. Parimal Garden, Ellisebridge - 380 006, Gujarat",23.0195,72.5587
Gujarat,Morbi,Morbi,"Near Nilkanth Vidyalaya, Ravapar Main Road, Morbi - 363641, Gujarat",22.82244,70.82502
Gujarat,Baroda (Vadodara),Baroda (Vadodara),"Ground Floor & 1st Floor, Gold Croft, Vishwas Colony, Jetalpur Road - 390 005, Gujarat",22.30812,73.170408
Gujarat,Valsad,Vapi,"Plot No. C, Shreenathji Chambers, G.I.D.C. Char Rasta - 396 195, Gujarat",20.36328,72.92248
Gujarat,Surat,Surat,"Ground Floor, G/2 Union Trade Centre, Udhna Darwaja, Ring Road, Surat - 395002, Gujarat",21.18421,72.83337
Gujarat,Anand,Dharmaj,"Dharmaj Bazar, Dharmaj Tal, District Anand - 388 430, Gujarat",22.41245,72.79259
Gujarat,Valsad,Valsad,"Royal Corner Besides Shah Virchand Govanji Jewellers, Halar Road, Valsad, Gujarat 396001",20.60753,72.92398
Gujarat,Surat,Bardoli,"Opposite Fuwara, Near Petrol Pump, Bardoli - 394 602, Gujarat",21.1292,73.10747
Gujarat,Jamnagar,Jamnagar,"Corporate House, Ground Floor, Opp. St. Anns High School, P.N.Marg, Jamnagar, Gujarat 361001",22.4827,70.05822
Gujarat,Kachchh,Gandhidham,"Rajkamal II, Plot No. 342,  Ward No. 12/B, Opp. V-Mart, Banking Circle, Gandhidham, Gujarat 370201",23.07011,70.13657
Gujarat,Bhavnagar,Bhavnagar,"Ground Floor, Shop No. 3, Shanti Heights, Vadodariya Park, Hill Drive, Bhavnagar 364002",21.755496,72.145239
Gujarat,Rajkot,Rajkot,"Ground Floor, Nakshatra IV, Dr. Radhakrishnan Road, Opp Rajkumar College, Gymkhana Road, Rajkot, Gujarat, Gujarat",22.29071,70.79534
Gujarat,Mahesana,Mahesana,"Rajendra Estate, Opp. Gayatri Temple, State Highway - 384 002, Gujarat",23.592234,72.378016
Gujarat,Baroda (Vadodara),Warasia (Baroda EC),"Ground Floor, Billy Patra Complex, Harni Warasia Ring Road, Opp Bankers Heart Hospital, Warasia, Baroda -  390006, Gujrat",22.31231,73.22291
Gujarat,Navsari,Amalsad,"Shree Shankheshwar Plaza, Zaveri Bazar, Amalsad - 396 310, Gujarat",20.81195,72.95491
Gujarat,Surat,Hazira,"1st Floor, Opp. Kribhco HSG, Kawas Patia - 394 516, Gujarat",21.18741,72.71149
Gujarat,Ahmedabad,Bodakdev,"2, Zodiac Square, Opp. Gurudwara, S.G. Road, Bodakdev - 380 054, Gujarat",23.04554,72.51592
Gujarat,Anand,Anand,"Ground Floor, G-2, HR Hub Building, Opp. Surbhi Hotel, Amul Dairy Road, Anand, Gujarat 388001",22.548453,72.969127
Gujarat,Narmada,Rajpipla,"Ground Floor, M/s Ramanlal H. Shroff, Station Road, Rajpipla - 393 145, Gujarat",21.87243,73.50284
Gujarat,Baroda (Vadodara),Manjalpur (Vadodara),"Ground Floor, Shop no. 11,12, 13 & 14, Safal Arise, Deep Chambers Char Rasta, Tulsi Dham Road, Manjalpur, Vadodara, Gujarat Pin code 390011",22.272548,73.197267
Gujarat,Ahmedabad,Mani Nagar (Ahmedabad),"Ground Floor, Shant Prabha Height, Opp. Vallabh wadi, Jawahar chowk, Mani Nagar, Ahmedabad, Gujarat - 380 008, Gujarat",22.995109,72.602753
Gujarat,Navsari,Samroli,"Ground Floor, Sutharwad, Samroli, Ta. Chikhli, Dist.Navsari-Gujarat - 396 521, Gujarat",20.76137,73.04816
Gujarat,Surat,Kamrej,"GF 203-206, GOLDEN PLAZA COMPLEX, KAMREJ CHAR RASTA SURAT 394185",21.26716,72.95954
Gujarat,Kachchh,Bhuj,"Ground Floor, Trisha Arcade, Shop no 5, Near Jubilee Ground, Bhuj-Mundra Road, Bhuj, District Bhuj-Kachchh Pin 370001, Gujarat.",23.239557,69.665993
Gujarat,Navsari,Navsari,"Shop Nos. 2 and 3, Prem Residency Co-op Housing Society Limited, Lunsikui, Navsari 396445 Gujarat, Gujarat",20.946342,72.934225
Gujarat,Gandhinagar,Gandhinagar,"Unit no. 14, Ground Floor,Suman city, plot no 17,Sec-11, Gandhinagar - 382 011, Gujarat, Gujarat",23.21615,72.64895
Gujarat,Ahmedabad,Prahlad Nagar (Ahmedabad),"Ground Floor, Saman-2, Opp: Reliance Petrol Pump, Prahlad Nagar Road, Satellite, Ahmedabad-380015, Gujarat",23.01262,72.51254
Gujarat,Kheda,Nadiad,"Ground Floor, Shop No.5 & First Floor, Shop No . 105, Sparsh Complex, Swami Narayan Temple, College Road, Nadiad Pin- ________, Gujarat",22.68312,72.87222
Gujarat,Rajkot,"Ring Road, Rajkot 2","Ground Floor,  Shop No. 5 & 6 (part), The Imperial Heights, 150ft Ring Road, Opp.Iscon Prozone Mall,Kalawad Road, Rajkot, Gujarat 360 007, Gujarat",22.28112,70.77597
Gujarat,Kachchh,Naranpar Pasayali,"Ground Floor, At Naranpar,  Uplovas - Naranpar Pasayali Gujarat 370429, Gujarat",23.11689,69.58913
Gujarat,Bharuch,Ankleshwar,"Ground Floor, Shop 10-11, Shree Ganesh Building, Old National Highway No.8, Ankleshwar, Gujarat 393001, Gujarat",21.63022,73.01523
Gujarat,Ahmedabad,Changodar,"Ground Floor,Gagan Complex,Sarkhej-Bavla Post: Changodar,Taluka,Ahmedabad -382213",22.92553,72.44496
Gujarat,Valsad,Udwada,"Dev Plaza, Rentlav, Udwada, Tal. Pardi, Dist. Valsad, Gujarat 396185",20.4626517,72.9133992
Gujarat,Baroda (Vadodara),"Gotri Road, Baroda","Ground Floor,Shop No 2 and 3,PURV PRIME, Near Nathubhai Circle, Gotri Main Road, Mouje Jetapur, Vadodara, Gujarat 390 007, Gujarat",22.31026,73.15844
Gujarat,Baroda (Vadodara),"Nizampura, Baroda","Ground Floor,Shop No 104-106 and First Floor 204-206,Akshar Plaza,Besides Goverdhan Nathji Haveli, Opp. Ghelani Petrol Pump,Nizampura,Vadodara,Gujarat 390001, Gujarat",22.33061,73.18098
Gujarat,Baroda (Vadodara),"Dandia Bazaar, Baroda","Ground Floor,Survey No.62 & 63/1 Hotel Rajdhani Building,Near Fire Station,Char Rasta,Dandia Bazaar,Vadodara,Gujarat 390001, Gujarat",22.30124,73.19765
Gujarat,Baroda (Vadodara),"Vasna Road, Baroda","Gorund Floor Shop 7,8 & First Floor Shop No 107,108 At Pancham Icon Near Vasana D  Mart Vasana Road Baroda -390007 Gujarat",22.29486,73.15427
Gujarat,Baroda (Vadodara),"Subhanpura, Baroda","Ground & 1st Floor, #A-46,Nutan Maheshwar Nagar Society, near High Tension Road, Subhanpura,Vadodara, Gujarat 390 023, Gujarat",22.323,73.15965
Gujarat,Surat,"Varachha Road, Surat","Ground Floor,G-4,Mangaldeep ComplexHirabagh Circle,Varachha Road,Kapodadara,Surat,Gujarat, Gujarat",21.21557,72.86325
Gujarat,Baroda (Vadodara),"Kareilibaug, Baroda","Ground & 1st  Floor, Haldar Tower, A/2,Plot No 59,Jyoti Park CHS Ltd, Opp. Amrapali Complex, Water Tank Road, Karelibaug, Vadodara, Gujarat  390 018, Gujarat",22.32127,73.19996
Gujarat,Kheda,Heranj,"Ground Floor,198,Masjidwalo Khancho,Heranj,Teh Mahuda,Dist Kheda,Gujarat, Gujarat",22.73579,73.04
Gujarat,Kheda,Kachhai,"Ground Floor,Opp. Idea Tower,Kachai Vilage,Teh Mehamsad,District Kheda,Gujarat, Gujarat",22.7905,72.76546
Gujarat,Anand,Ghora,"Ground Floor,Opp. Gram Panchayat Office, Ghora,TA Umreth,Dist Anand,Gujarat, Gujarat",22.7078,73.047
Gujarat,Mahesana,Katosan/Khadosan,"Ground Floor,Near Dudiya Kuwa Village Khasan Taluka -Vishnagar Dist Mehsana,Gujarat, Gujarat",23.45963,72.2193
Gujarat,Anand,Bechari,"Ground Floor Near Parabadi Village Bechari  Taluka Umreth Dist Anand,Gujarat, Gujarat",22.67181,73.13668
Gujarat,Kheda,Mankwa,"Ground Floor,223/224,Adjacent to Ram Mandir,Mankwa,Teh mehmdabad,Dist Kheda,Gujarat, Gujarat",22.8637,72.79785
Gujarat,Anand,Bhavanipura,"Ground Floor,Block 428,Opp. Patelwadi, at Post Bhawanipura,TA Petlad, Dist Anand,Gujarat, Gujarat",22.49468,72.82194
Gujarat,Mahesana,Vadu,"Ground Floor,Plot . 1,At: Vadu,Taluka Visanagar,District Mehsana Gujarat, Gujarat",23.70107,72.42925
Gujarat,Ahmedabad,Dhedhal,"Ground Floor,Krish estate,Shop 10,Dhedal  Taluka Bavla,dist Ahmedabad,Gujarat, Gujarat",22.83315,72.3441
Gujarat,Anand,Kherda,"Ground Floor,Village: Kherda,Taluk & Dist Anand,Gujarat, Gujarat",22.51924,73.10048
Gujarat,Mahesana,Santhal,"Ground Floor,Santhal Village, Opp Police Station  Taluka & Dist Mehsana,Gujarat, Gujarat",23.4834,72.2559
Gujarat,Mahesana,Vanagla,"Opp ganesh cattal feed,village Vanagala, taluka Unjha,Dist Mehsana, Gujrat, Gujarat",23.78109,72.43674
Gujarat,Ahmedabad,Ahmedabad - Ashram Road,"Plot 122,mbika NiwasAshram Road,Opp. Bata HouseAhmedabad,Gujarat, Gujarat",23.03638,72.56909
Gujarat,Ahmedabad,"Ahmedabad -Shyamal Cross road, Shangrila","Ground Floor,Shangrila ArcadeShop 1 &2,100ft Road,Shyamal Cross Road,Satellite,Ahmedabad,Gujarat, Gujarat",23.01411,72.52913
Gujarat,Ahmedabad,Ahmedabad - CG Road,"Ground Floor,Shop 5/1 to 5/6,Shukun Business CentreNear Fairdeal House,Swastik Char Rasta,Off. C.G. Road,Narangpura,Ahmedabad,Gujarat, Gujarat",23.03658,72.56016
Gujarat,Baroda (Vadodara),Baroda - New Sama,"Ground & First Floors,Shop . 1 & 2 anki AvenueBlock . 2 & 3 of Punit Nagar Society,New Sama Road,Vadodara,Gujarat, Gujarat",22.34216,73.19092
Gujarat,Ahmedabad,Ahmedabad - Odhav,"Ground Floor,Mangalam ArcadeShop 25 & 26,Opp. Odhav Talav,Odhav BRTS Road,Odhav,Ahmedabad,Gujarat, Gujarat",23.02417,72.66508
Gujarat,Mahesana,Mevad,"Ground Floor,Narayan Plaza,Shop 23,At Mevad Taluka & Dist Mehsana,Gujarat, Gujarat",23.53121,72.38903
Gujarat,Ahmedabad,Ahmedabad - Vijay Cross Road,"Unit .G-4,Ground floor,CP Business Centre?,Opp to Memnagar Fire Station,Near Vijay Cross Road,Navrangpura,Ahmedabad,Gujarat, Gujarat",23.04511,72.55152
Gujarat,Rajkot,Chordi,"Ground Floor,288 Plot Vistar,Chordi,Old Gantal Area Dist Rajkot Gujarat, Gujarat",21.91139,70.74411
Gujarat,Ahmedabad,Ahmedabad - Bopal,"Shop .28,36 & 37 at Amrapali Axiom,Ambli Cross Road,Bopal,Draft Town Planning Scheme .52,situated at Mouje Village: Ambli,Tal: Daskroi,Ahmedabad,Gujarat, Gujarat",23.02698,72.47717
Gujarat,Morbi,Paneli,"Ground Floor,Plot 26,Shop 1 & 2,Jaydeep Complex,Paneli Teh ; Dist Morbi Gujarat., Gujarat",22.79498,70.95014
Gujarat,Morbi,Rangpar,"Ground Floor,Shop 3,Dharmagh Complex,Opp ABC Ceramic Rangpar Dist Morbi Tehsil Morbi,Gujarat, Gujarat",22.92642,70.90258
Gujarat,Baroda (Vadodara),Baroda - Waghodia,"Shop 3,Ground Floor .K. AvenuePlot 6,7 & 8,Amar Park Society,Near Zaver Nagar,Near Uma Char Rasta,Waghodia,Vadodra,Gujarat, Gujarat",22.30036,73.23342
Gujarat,Mahesana,Dhanali,"Ground Floor,Patel Vas Dhanali,Village: Dhanali,Taluka :Kadi,Dist-Mehsana,Gujarat, Gujarat",23.40856,72.37037
Gujarat,Anand,Baroda-Anand- Valabh Vidya Nagar,"Ground Floor,House-123,Shop GF-1 igma PrimeNear Sardar Patel Statue,Janta Chowki Road,Vallabh Vidhya Nagar,Dist: Anand,Gujarat, Gujarat",22.54522,72.92913
Gujarat,Ahmedabad,Ahmedabad - Nikol,"Ground Floor,alm ArcadeShop 1,2 & 3,Sukan Bungalow,Char Raasta,New Nikol,Ahmedabad Gujarat, Gujarat",23.04982,72.66482
Gujarat,Ahmedabad,Ahmedabad - Mansi Circle Cross Roads Vastrapur,"Ground Floor,Shop 1&2,Shakti 21,Sudarshan Bungalow,Near Mansi Circle,Vastrapur,Ahmedabad,Gujarat, Gujarat",23.0299,72.5278
Gujarat,Ahmedabad,Ahmedabad - Nehru Nagar,"Ground Floor,Shop 4,bhishree Avenueandanvan SBI Supervising Officials CHS Ltd,Near Nehrunagar Circle,Nehru Nagar,Ambavadi,Ahmedabad,Gujarat, Gujarat",23.02162,72.54485
Gujarat,Ahmedabad,Ahmedabad- Science City,"Ground Floor,aptak Corporate HouseGF 1/A,Besides Sukun Mall,Science City Road,Ahmedabad,Gujarat, Gujarat",23.07153,72.51584
Gujarat,Ahmedabad,Ahmedabad - Ghodasar,"Shop 1,2 & 3,Ground Floor ANSASIsanpur -Ghodasar Link Road,Near Cadila Bridge,Ghodasar,Ahmedabad,Gujarat, Gujarat",22.97912,72.61121
Gujarat,Ahmedabad,Ahmedabad - Chandkheda,"Ground Floor, Shop No 1,2,3 &4 AARON ELEGANCE, New C.G. ROAD, Chandkheda, Ahmedabad, Gujarat, Gujarat",23.10883,72.59504
Gujarat,Ahmedabad,Ahmedabad- Naroda,"Ground Floor, Shop Nos 32 to 37, "" Neelkanth Paradise "", Near Galaxy Cinema, Plot No 34, Naroda  Ahmedabad, Gujarat,Gujarat",23.07811,72.65365
Gujarat,Anand,Borsad,"Ground Floor,Plot No:1692/1726/2, Opp. to Swaminarayan Temple, Bhadran Tarapur Road, Anand Chokdi, Borsad, Dist : Anand, Gujarat, Gujarat",22.57497,72.93027
Gujarat,Valsad,Umbergaon,"Ground Floor, Shop Nos 9, 10 & 11 Sai Complex Commercial, Near GIDC Office, Plot No A, Umargam, Gujarat 396171",20.168684,72.775495
Gujarat,Bharuch,"Mangalam Complex, Bharuch","Ground Floor, Shop No. 5 & 6, Shree Mangalam Complex, B/H Aditya Complex, Kasak, Bharuch- 392002, Gujarat",21.71559,72.99728
Gujarat,Baroda (Vadodara),"Akota, Baroda","Ground and First Floor, Shreeji Business Hub,  #66/A, Shreenagar Society, BPC Road, Akota, Vadodara -390 020, Gujarat",22.31761,73.18262
Gujarat,Surat,"Vesu, Surat","Ground Floor, Shop No G-1, SAI VILLA, Plot No 9, Sai Enclave, Someshwara Road, Vesu, Surat- 395 007, Gujarat",21.18069,72.83246
Gujarat,Ahmedabad,"Shahibaug, Ahmedabad","Ground Floor Shop No 10 & 11 and First Floor Shop No. 109& 110, Advance Business Park, Block-A, Opp. Swaminatrayan Temple, Shahibaug, Ahmedabad -380004, Gujarat",23.045612,72.589297
Gujarat,Kutch,"Madhapar, Bhuj, Kacchh","Ground, First & Second Floor, Kerai Arcade,Shop No 1-4, Navavas Road,Madhapar- 370 020, Dist Bhuj-Kutch, Gujarat",23.240791,69.668839
Gujarat,Ahmedabad,"Paldi Cross Road, Ahmedabad","Ground Floor, Shop No # 2 & 3, Gangandeep, Paldi Cross Road, Paldi, Ahmedabad- 380007, Gujarat",23.001848,72.565378
Gujarat,Valsad,MAGOD DUNGRI,"Ground Floor Godown no 2, Magod Dungri, Matsyodyog  Vividh Karyakari Sahakari Mandli Ltd,  Dist Valsad, Gujarat - 396 020, Gujarat",20.547884,72.895881
Gujarat,Sabar Kantha,Himatnagar,"Ground Floor, Shop No. 5, 6, 7 and 8, Kumar House, Durga Mill Compound, Himmatnagar, District- Sabarkantha, Gujarat- 383001, Gujarat",23.601418,72.974397
Gujarat,Ahmedabad,"Sarkhej, Ahmedabad","Ground Floor, Shop No B-10, Solitaire Business Park,SG Highway, Makarba, Sarkhej, Ahmedabad- 380 051, Gujarat",22.999814,72.499468
Gujarat,Valsad,BHADELI JAGALALA,"Ground Floor, Opp. Hingraj MataTemple, Village: Bhadeli Jagalala, Dist: Valsad- 396 031, Gujarat",20.643088,72.900009
Gujarat,Ahmedabad,"Vatva, Ahmedabad","Ground Floor, Shop no. 1, 2, 3 & 4. Sankheshwar Industrial Park, Phase -1, GIDC, Vatva. 382445,Gujarat",22.967362,72.629871
Gujarat,Ahmedabad,"Kalupur, Ahmadabad","Ground Floor, Shop Nos.  12 to 14, BBS Market, BBS Market, Prem Darwaja, Six Road, Kalupur, Ahmedabad, Gujrat, India - 380001",23.026011,72.599038
Gujarat,Surat,"Katargam, Surat","Ground Floor, FP 131, AVADH BUILDING, Katargam- Amroli Road, Mehta Petrol Pump, Opp. Maruti Showroom, Katargam-395004, Dist: Surat, Gujarat",21.220967,72.834973
Gujarat,Ahmedabad,"Gurukul Road, Ahmedabad","Ground Floor, Shop no. 9, & 10, Yash Arian, new Gurukul,Mouje -Wadaj, Swami Vivekanand cross Road, Ahmedabad.Gujrat, 380052",23.042295,72.531351
Gujarat,Ahmedabad,"Ghatlodia, Ahmadabad","Ground Floor, Shop Nos. 10 to 13, Aaryan Euphoria,  Survey No. 177/B,   Opp. Kargil Petroleum Pump Lane,  Off. SG Highway, Ghatlodia Ahmedabad,Gujarat – `380061",23.07583,72.530822
Gujarat,Patan,Patan,"Ground Floor, Shop no. 2,3,4,5,6,Utsav Plaza, Plot no. 44, Nandan Warehouses, Patan, Dist. Mehesana -384265, Gujarat",23.836202,72.12394
Gujarat,Sabar Kantha,Hathrol,"Ground Floor, 462, Village : Hathrol, Tehsil - Himmatnagar, Dist : Sabarkantha - 383030",23.506223,73.100109
Gujarat,Vadodara,Bhayli Vadodara,"GROUND  FLOOR, SHOP NO. 2, 3, 4 AND 5 RAJPATH, BHAYLI ROAD, BHAYLI, VADODARA, GUJARAT 391410",22.289879,73.130875
Gujarat,Ahmedabad,"Nava Naroda, Ahmadabad","Ground Floor, Shop no.12, 13 and 14, Vitthal Plaza, Opp. G.E.B, Naroda-Dehgam Road,  Nava Naroda, Ahmedabad GUJARAT 382330",23.079758,72.673326
Gujarat,Ahmedabad,"Ishanpur Road, Ahmedabad","Ground Floor, Shop no.1,2 and 3, Haridwar Avenue, Opposite Kalupur Co-operative Bank, Near Ramwadi, Ishanpur Road, Ahmedabad, GUJARAT 382443",22.981972,72.602934
Gujarat,Rajkot,"Gondal Road, Rajkot","Ground Floor, Shop No. 04,05 and 06,Jaynath Building, C.S. No. 3360 of C.S.W. No. 7/2,Gondal Road, Makkam Chowk, Rajkot, GUJARAT 360002",22.278907,70.79927
Gujarat,Ahmedabad,"Gota, Ahmedabad","Ground Floor, Shop No. 1 & 2, Vraj residency, Near Vishwas City-6, Satyamev Vista to 100ft. Road, Gota, Ahmedabad- 382481 Gujarat",23.098536,72.54117
Gujarat,Rajkot,"Lalpar, Morbi","Ground Floor, Shop No. 3, 4 & 5, Ishan Ceramic Zone, Opp. Shakti Chamber-2, Near Omkar Petrol Pump, NH-8, Lalpar - 363642,  Taluka: Morbi, Dist: Rajkot, Gujarat;",22.812939,70.868663
Gujarat,Surat,"Yogi Chowk, Surat","Ground Floor, Shop No. 21, 22, 23, Anupam the Business Hub, Opposite Vijay Nagar, Yogi Chowk, Surat – 395006, Gujarat",21.213535,72.885589
Gujarat,Rajkot,"Sadhu Vaswani Road, Rajkot","Ground Floor, Shop No. 20, 21, 27 & 28,  ANMOL COMPLEX, Sadhu Vaswani Road, Rajkot 360005 Gujarat",22.295104,70.758681
Gujarat,Surat,Sosyo Circle Surat,"Ground Floor, Shop No. 3,  Blue Sky Commerce Square, Near City Centre, Bamroli Road, Sosyo Circle, Surat – 395007, Gujarat",21.171894,72.827013
Gujarat,Ahmedabad,"Hebatpur Road Thaltej, Ahmedabad","Ground Floor, Shop No. 07, HARMONY ICON, 100ft Thaltej –Hebatpur Road, Thaltej, Ahmedabad -380059, Gujarat",23.053325,72.500563
Gujarat,Ahmedabad,"Naranpura Cross Road, Ahmedabad","Ground Floor, Shop No. 2 B & 3, Ratna High Street, Naranpura Cross Road, Ahmedabad- 380013, Gujarat",23.045261,72.551426
Gujarat,Mahesana,Udalpur,"First Floor, Shree Udalpur Dudh Utpadak Sahakari Mandali, at Udalpur, Tehsil: Visnagar, Dist: Mehsana Pin 384001 Gujarat",23.559096,72.484008
Gujarat,Kheda,Kashipura,"First Floor, Shree Kashipura Dudh Utpadak Sahakari Mandali, at Kashipura, Tehsil: Kapadvanj, Dist: Kheda Pin 387620 Gujarat",23.118721,73.172939
Gujarat,Rajkot,Nana Mauva Rajkot,"Ground Floor, Ramkrupa Dairy Farm, Near Rajnagar Circle, Jai Park, Rajkot, Gujarat Pin 360001",22.278892,70.783073
Gujarat,Ahmedabad,Rakhial Ahmedabad,"Ground Floor, Shop No. 01, Sumel-8, Block-B, Nr. Ajit Mill, AMTS Bus Stop, Rakhial, Ahmedabad, Gujarat 380023",23.01142,72.38005
Gujarat,Ahmedabad,Khokhara Ahmedabad,"Ground Floor, Showroom No. 01 & 02, SHUBH VASTU ARCADE, Plot No. 46, Mouje : Mithipur Taluka : Asarwa, situated at Nr. Gayatri Dairy, Khokhara, Ahmedabad 380008 Gujarat",23.004598,72.615069
Gujarat,Ahmedabad,Shela Ahmedabad,"Ground Floor, Shop No. 5 & 6, Sky City Complex, Near Club 07, Shela, Ahmedabad 380058 Gujarat",23.005049,72.46265
Gujarat,Rajkot,Metoda Rajkot,"Ground Floor, Shop No. 5, 6 & 41, Fortune Gold, Plot No. C - 920, Kishan Gate Road, Lodhika, GIDC, Metoda, Rajkot 360021, Gujarat",22.239517,70.675524
Gujarat,Valsad,Dharampur Valsad,"Ground Floor, Shop No. 7 & 8, Nakashtra Developers (Era), Garden Road, Taluka Dharampur, District Valsad, Gujarat- 396050",20.537788,73.168531
Gujarat,Navsari,Billimora,"Ground Floor, Shop No. 2, Golden Palace, Collage Road, Goharbaug, Billimora 396321, Gujarat",20.767106,72.976561
Gujarat,Surat,"Rander Road, Surat","Ground Floor, Shop No. 4 to 7, Sangini Magnus, Rushabh Char Rasta, Plot No. 62, Adajan Patia, Rander Road, District Adajan, Surat, Gujarat- 395009",21.200396,72.80369
Gujarat,Surat,"Sachin GIDC, Surat","Ground Floor, Plot no. 414/1, Road Number 4, GIDC Industrial Estate, GIDC, Sachin, Surat, Gujarat 394230",21.08615,72.861329
Gujarat,Surat,"Ved Road, Surat","Ground Floor Shop No. 1 to 4, Dev Prayag Residency, Singanpor Dabholi Ved Road, Causeway Road, Surat 395004 Gujarat",21.225394,72.80939
Gujarat,Surat,"VIP Road Althan, Surat","Ground Floor, Shop No. 01, Anupam Square, VIP Road Althan, Surat 395017 Gujarat",21.146326,72.80485
Gujarat,Surat,"Magob, Surat","Ground Floor, Shop No. G-37, Landmark Empire Building, Plot No. 45 of T. P. Scheme No. 64, Magob Saroli Main Road, Surat, Gujarat- 395010",21.190379,72.877135
Gujarat,Ahmedabad,Godrej Garden City Ahmedabad,"Ground Floor, Shop No.20A, City Square, Godrej Garden City, Jagatpur, Ahmedabad Pincode 382481 Gujarat",23.113539,72.555199
Gujarat,Ahmedabad,Satadhar Cross Road Ahmedabad,"Ground Floor, Shop No. 1, Maple Shopola (Maple Tree), Satadhar Circle, Near Sal Hospital, Ahmedabad Pincode 380058 Gujarat",23.055243,72.527534
Gujarat,Junagadh,Junagadh,"Ground Floor, Shop No.3, Seven Seas, Motibaug Road, Junagadh, Pincode 362001 Gujarat",21.507828,70.44726
Gujarat,Surat,L. P. Savani Road Adajan Surat,"Ground Floor, Mangaldeep Complex, Opp. L P Savani School, L P Savani Road, Adajan, Surat Pincode 395009 Gujarat",21.188783,72.790189
Gujarat,Valsad,Pardi,"Ground Floor, Aastha building, Below Kalrav Children Hospital, Near Bus Stop, NH -8, Killa Pardi, Tal:Pardi, Valsad Pincode 396125 Gujarat",20.51235,72.945168
Gujarat,Anand,Vidyanagar Road Anand,"Ground Floor, Shop No. 2, Maruti Sumiran Building, Opp. Nandbhoomi Party Plot, Vidyanagar Road, Village: Anand Pincode 388001 Gujarat",22.551249,72.937291
Gujarat,Surat,Textile Market Ring Road Surat,"Ground Floor, Shop Nos. 1006 & 1007, Raghunandan Textile Market, Ring Road, Surat, Gujarat; PIN: 395002",21.188965,72.840184
Gujarat,Ahmedabad,Narol Ahmedabad,"Ground Floor, Shrimad Square, Near Bhagirath Icon, Narol Aslali Highway, Ahmedabad, PIN: 382405, Gujarat",22.955436,72.592019
Gujarat,Ahmedabad,Ramdas Road Ahmedabad,"Ground Floor, Shop No. 14, Times Square Arcade II, Block B, Beside Avalon Hotel, Ramdas Road, Bodakdev, Ahmedabad, Gujarat; PIN: 380054",23.044819,72.507502
Gujarat,Surat,Ghod Dod Road Surat,"Ground Floor, Black Jack Cinema, Ghod Dod Road, Opp. Rangila, Bhatar Char Rasta, Maktampur, Athwa, Surat Pin code 395001 Gujarat",21.175493,72.805878
Gujarat,Banas Kantha,Palanpur,"Ground Floor, H.K. Tower, Shop No. 5, 6, 7, 8 & 9, Hanuman Tekri, Abu Highway Road, Palanpur, District Banaskantha Gujarat",24.180579,72.41745
Gujarat,Surat,Mota Varachha Surat,"Shop Nos. 4,5,6,12 Sunshine Complex, Mota Varacha Main Road, Sudama Chowk, Mota Varacha, Surat, PIN: 394101, Gujarat",21.236571,72.875636
Gujarat,Ahmedabad,Nikol-Ring Road Ahmedabad,"Ground Floor, Shop No. 28, Sunrise Business Centre, Near Divyajivan Satya & Shriji Sankalp, Nikol-Ring Road, Nikol, Ahmedabad PIN: 380038, Gujarat",23.040197,72.670919
Gujarat,Surat,Sumul Dairy Road Surat,"Ground Floor, Shop Nos. 35 & 36, Mahek Icon, Nr. Sumul Dairy, Sumul Dairy Road, Surat, PIN: 395004 Gujarat",21.214438,72.84011
Gujarat,Ahmedabad,Bavla,"Ground Floor, Shop Nos. 32, 33 & 34, Block A, Zaveri Bazar, Station Road, Bavla, District Ahmedabad, Gujarat, PIN: 388820",22.832335,72.361467
Gujarat,Ahmedabad,Dholka,"Ground Floor, Shop Nos. 01, 02, & 03, Shrifal Exotica, Opp. APMC Market, Dholka-Bagodra Highway, Dholka, Ahmedabad, PIN: 382225, Gujarat",22.719351,72.441768
Gujarat,Surat,Lambe Hanuman Road Surat,"Ground and Part First Floor,  Shreeji Niwas, Asha Nagar Society, Lambe Hanuman Road, Surat, PIN: 395006, Gujarat",21.205848,72.846848
Gujarat,Porbandar,Porbandar,"Ground Floor, Sahyog building, M. G. Road, Porbandar, Gujarat, Pin code 360575",21.638532,69.61916
Gujarat,Ahmedabad,Prabhat Chowk Ghatlodia Ahmedabad,"Shop No. 18 & 19, Sahyog Co-op. Housing Society Ltd., Scheme Shree Kunj Shopping Centre, Final Plot No. 66/1, 66/2, 67, 69, Prabhat Chowk, Mouje & Taluka: Ghatlodia, Ahmedabad, Gujarat Pin code 380061",23.06787,72.54486
Gujarat,Ahmedabad,New Ranip Ahmedabad,"Ground Floor, Shop No. 12-A & 14, Nishan Pride, Survey No.193 & 199, T. P. Scheme No. 66, Mouje: Ranip, Taluka: Sabarmati, Ahmedabad, Gujarat Pin code 382480",23.090222,72.564538
Gujarat,Kachchh,Anjar,"Ground Floor, Krishna complex,  Property Nos. 1243, 1243/1 & 1243/1/1, Varsamedi Gate, Near Manav Residency Hotel, Anjar, District Bhuj, Gujarat PIN: 370110,",23.113514,70.031552
Gujarat,Amreli,Amreli,"Ground Floor, Safari Plaza, Shop Nos. 4, 5, 6 (Part), 8, 11 & 12 Bhagwati Chowk, Manekpara, Amreli, PIN: 365601, Gujarat",21.600418,71.218697
Gujarat,Surat,Anand Mahal Road Surat,"Ground Floor, G-24, Green Elina, Anand Mahal Road, Adajan, Surat, PIN: 395009, Gujarat",21.198051,72.796301
Gujarat,Vadodara,Vadodara Atladra,"Ground Floor, V3 Landmark, Vadodara, Shop No. 04, Atladara Main Road, Atladara,  PIN: 390012, Gujarat",22.274636,73.153506
Gujarat,Surendranagar,Surendranagar,"Ground & First Floor, Shivalik-1, Bus Stand Road, Near Bharat Petrol Pump, Surendranagar, Pincode 363001, Gujarat",22.724493,71.638436
Gujarat,Surat,Surat Bhagal,"Ground & First Floor, Ghanchi Sheri, Tower Road, Opp. Fire Brigade, Bhagal, Surat, PIN: 395003, Gujarat",21.19949,72.83509
Gujarat,Junagadh,Keshod,"Ground Floor,  Shop Nos. 1, 2 & 4, Vikas complex, Beside Airtel Store,  Junagadh Highway Road, Keshod, District Junagadh, Gujarat, PIN 362220",21.303671,70.249205
Gujarat,Anand,Bhalej Road Anand,"Ground Floor, Shop No. 7 & 8, Raghuvir City Centre, Bhalej Road, Anand, PIN: 388001",22.558261,72.958213
Gujarat,Surat,Surat Sarthana,"Ground Floor, Skyzone, Shop No. G-30, G-27, G-25, G-23, Near Shyam Dham Mandir, Sarthana, Varacha, Surat, 395006, Gujarat",21.237311,72.90959
Gujarat,Botad,Botad,"Ground & First Floor, MK Complex, Opp. S. T. Depot, Paliyad Road, Botad, PIN 364710, Gujarat",22.1742574,71.6591238
Gujarat,Gir Somnath,Veraval,"Ground Floor, Vinayak Plaza-1, Shop No. 9, 10, 23 & 24, Rajendra Bhuvan Road, Near Tower Chowk, Veraval, PIN: 362265, Gujarat",20.910244,70.362843
Gujarat,Dahod,Dahod,"Ground Floor, Shop No. 2, Anurekha, Durga Mill Compound, Dahod, PIN 389151, Gujarat",22.834389,74.259806
Gujarat,Jamnagar,Khodiyar colony Jamnagar,"Ground Floor, ROYAL HEIGHT, Beside TVS Showroom, Aerodrome Road, Khodiyar Colony, Jamnagar, Gujarat Pin 361006",22.470871,70.050117
Gujarat,Rajkot,Ranchhod Nagar Rajkot,"Ground Floor, Shop no. 3,4,5 Gurudev Arcade, Pedak Main Road, Ranchhod Nagar, Rajkot, Gujarat Pin 360001",22.302721,70.816079
Gujarat,Baroda (Vadodara),Vadodara Tarsali,"Shop No 4, Ground Floor, Zillion Landmark, Near Bansal Mall, Soma Talab, 40 mtr Ring Road, Tarsali, Vadodara, Gujrat 390009",22.267484,73.223103
Gujarat,Baroda (Vadodara),"New Alkapuri, Vadodara","Sears Tower, Shop No 1/B, Opp Sevasi High Sch., Sevasi Gotri Rd, Sevasi, Vadodara, Gujrat 391101",22.318514,73.122478
Gujarat,Baroda (Vadodara),"Nilamber circle, Vadodara","Akshar Pavillion Mall, Ground Floor, Shop No.3, New 30 Mtr Dandyabazar - Bhayli Road,  Near Nilamber Circle, Vadodara, Gujarat - 390021",22.298955,73.129409
GUJARAT,Vadodara,"Mandvi, Vadodara","Ground Floor Jr White House, Gandigate, Mandvi, Chokhandi, Pratap Nagar Road, Vadodara, Gujarat - 390017",22.29689,73.210657
GUJARAT,Kachchh,"Mundra, Kutch","Ground Floor, Survey No. 176, Plot No. 34 & 41, Shivam park,  Adani Port Road, Village : Nana Kapaya, Mundra - Kutch (Gujarat) Pin Code :370421",22.837996,69.703069
GUJARAT,Ahmadabad,"TP 44, Ahmedabad","Ground Floor, Shop no. 01 & 02, Maruti Laxis Opp. Keshav Apartments, TP-44, Chandkheda, Ahmedabad, Gujarat 382424",23.116894,72.595785
GUJARAT,Vadodara,"Akshar Chowk, Vadodara","The Prime Shop No 110 & 111 , Akshar Chowk, Old Padra Road, Vadodara, Gujarat 390020 India",22.282778,73.165335
GUJARAT,Ahmadabad,"New Chandkheda, Ahmadabad","SHOP NO  12-13, SHREE SARJU ARENA, NEAR SATYAMEV HOSPITAL,TRAGAD, NEW CHANDKHEDA, AHMEDABAD - 382470",23.1207938,72.5753632
GUJARAT,Mahesana,"Radhanpur road, Mehsana","GF 56-60,Saket business Hub, Radhanpur road, At post Panchot ,Mehsana 384002 GUJRAT",23.6171835,72.3517781
GUJARAT,Surat,"SDB, Surat","SURAT DIAMOND BOURSE, TOWER- B, SHOP NO 7 & 8, DREAM CITY, BEHIND SURAT INTERNATIONAL, EXHIBITION AND CONVENTION CENTRE, KHAJOD, SURAT 395007  GUJRAT",21.1230797,72.7927371
GUJARAT,Ahmadabad,"Iskon Ambli Rd, Ahmedabad","GROUND FLOOR, SHOP NO. 01 SHILP APERIA, ISKON AMBLI ROAD, AHMEDABAD, GUJARAT 380052",23.028135,72.49855
GUJARAT,Ahmadabad,"Corporate Road, Ahmedabad","GROUND FLOOR COMMERCE HOUSE 6 CORPORATE RAOD, PRAHLAD NAGAR MAKARBA AHMEDABAD GUJARAT - 380051",23.0003913,72.5014012
Gujarat,Ahmedabad,Specialised Br Bapu Nagar,"Shop No. 223-224, Pushkar Business Park, Shyam Shikhar Road, Bapunagar, Ahmedabad Gujarat 380024",23.042118,72.631218
Gujarat,Navsari,Specialised Br Navsari,"Plot No. 2658, Shop No. 1-2-3, First floor, Suresh Residency, Sindhi Camp Road, Behind Technical High School, Luncikui, Navsari, Gujarat 396445",20.9456745,72.9315355
GUJARAT,Dharampur,SHRIMAD RAJCHANDRA,"Shrimad Rajchandra hospital research center, Block 3 Ground Floor, Near Emergency Entrance Gate",20.537229,73.187561
Gujarat,Junagadh City,Specialised Br Junagad,"No 201/202, Second floor, Marry Gold – 3, Opp. Bahudin College , Bhutnath Road, Junagadh, Gujarat 362001",21.5108866,70.4588059
GUJARAT,Surat City,"Pandesara, Surat","GROUND FLOOR, G-2 PRAGATI TOWER, BEHIND DAXESHWAR MAHADEV TEMPLE, PANDESARA MAIN ROAD, SURAT 394221",21.1515603,72.8448235
GUJARAT,Anand,Karamsad,"SHOP NO 24 & 25, RUDVEDA BUILDING OPP KARAMSAD MEDICAL COLLEGE KARAMSAD MAIN ROAD ANAND – 388325 GUJARAT",22.541803,72.892359
Gujarat,Kachchh,Specialised Br Bhuj,"First Floor, Plot No.10, Hireshwar Complex, Above Patanjali Store, Sanskar Nagar, Bhuj, Kachchh, Gujarat 370001",23.24113,69.655779
GUJARAT,KHAMBHAT,Khambat,"GROUND FOOR, SIDDHSAGAR COMPLEX, B-18/1 AND 18/2, CITY SURVEY Survey Number 2/3618, NEAR RAILWAY STATION, KHAMBHAT 388620 GUJARAT",22.32337,72.629303
GUJARAT,SURAT,"Udhna teen Rasta, Surat","7, GROUND FLOOR, SQUARE COMPLEX, OPP. UDHANA SANGH COMPLEX, PLOT NO A-21/1, NEXT TO SURAT DISTRICT BANK, SURAT - 394210 GUJARAT",21.169432,72.843778
GUJARAT,Sanand,Sanand,"GROUND FLOOR, VINAYAK ENTICE, SHOP NO 1,2, OPPOSITE CROMA, SANAND BUS STAND ROAD, SANAND MAIN ROAD, SANAND, GUJARAT, 382110",22.991835,72.371864
GUJARAT,Ahmadabad,Sandesh Press Road,"GROUND FLOOR, SHOP NO. 06 ASKSHAR SQUARE, SANDESH PRESS ROAD, OPP. LAD SOCIETY, VASTRAPUR, BODAKDEV , AHMEDABAD - 3800054 GUJRAT",23.036568,72.52214
GUJARAT,Surat,"VVIP Road 2 , Surat","GROUND FLOOR, H2, SOLARIUM BUSINESS HUB, VESU, VIP ROAD, SURAT  395007  SURAT",21.1395,72.7691
GUJARAT,Vapi,Chala Vapi,"GROUND FLOOR, SHOP NO. 14 AND 15, TIMES SQUARE, CTS NO 340/B, VAPI DAMAN ROAD, CHALA, VAPI, VALSAD, GUJARAT 396191",20.389179,72.899761
GUJARAT,Bharuch,"Link Road, Bharuch","GROUND FLOOR, SHOP NO. 1, 2, 8, 9, SILVER SHRUSHTI, LINK ROAD, UMRAJ, BHARUCH GUJARAT, 392001",21.718927,72.98571
GUJARAT,Baladiya,Baladiya,"GROUND FLOOR SHOP NO 4 -7 MAHARAJA COMPLEX, NEAR HDFC BANK BALADIYA KUTCH GUJARAT 370427",23.097702,69.610602
GUJARAT,AHAMEDABAD,"Prernartrith Road, Ahmadabad","SHOP NO 2, ARYABHUMI COMPLEX, OFF MG FARM, JODHPUR GAM, SATELLITE, AHMEDABAD - 380015 GUJRAT",23.016515,72.522529
GUJARAT,NAVSARI,"Station Road, Navsari","GROUND FLOOR, A- NIRMAL COMPLEX, SANDHKUVA, NAVSARI - 396445 GUJRAT",20.951531,72.921284
GUJARAT,Bhuj,"Sanskar Nagar, Bhuj","GROUND FLOOR, SHOP NO, 9 , J.V. SQUARE 2, SANSKAR NAGAR, BHUJ, TALUKA : BHUJ, DISTRICT : KUTCH - 370001 GUJRAT",23.240473,69.655743
GUJARAT,Deesa,Deesa,"GROUND FLOOR NO 54, RAMA BUSINESS HUB, NR ANAND HOTEL, OPP. DANTIVADA COLLONY , DEESA - 385535 GUJRAT",24.256179,72.191399
GUJARAT,Surat,"Tarwadi, Surat","GROUND FLOOR, ANAND APARTMENT, C BLOCK, SAI KRUPA BUS STOP RANDER ROAD, TADWADI, SURAT - 395005  GUJRAT",21.20877,72.795183
GUJARAT,Gandhinagar,"Kudasan, Gandhinagar","INDUSIND BANK LIMITED,GROUND FLOOR SHOP NO 34-35, SUYASH SOLITARE, NR PODAR INTERNATIONAL SCHOOL;KUDASAN POR RD,GANDHINAGAR - 382421 GUJRAT",23.1768504,72.6314051
GUJARAT,Surat,"PIPLOD Road, Surat","GR FLOOR, G1B, SWASTIK UNIVERSAL, WING A, NEAR VELENTINE THEATRE, PIPLOD, SURAT , GUJARAT",21.154941,72.763699
GUJARAT,Valsad,Abrama Road Valsad,"GROUND & MEZ. FLOOR, PRAMUKH SANIDHYA, SHOP NO. A8, ABRAMA ROAD, VALSAD GUJARAT-396002",20.59411,72.940906
GUJARAT,Surat City,"Dabholi, Surat","GROUND FLOOR, SHOP NO 1 TO 7 KEDAR  BUSINESS CENTER, BAPA SITARAM CHOWK , DABHOLI, SURAT,  395004  GUJARAT ",21.229702,72.825362
Haryana,Gurgaon,Gurgaon Main,"First India Place, Block A, Ground Floor - 122 002, Haryana",28.47952,77.08318
Haryana,Panchkula,Panchkula,"S.C.O. No. 28, Sector 11, Panchkula - 134 112, Haryana",30.68801,76.85112
Haryana,Karnal,Karnal,"S.C.O. No. 254, Part 1, Sector 12, Karnal, Haryana 132001",29.694961,77.002073
Haryana,Hissar,Hissar,"SCO No. 99, Green Square Market, Near Telephone Exchange, Hissar - 125001, Haryana",29.15847,75.72066
Haryana,Rohtak,Rohtak,"S.C.O. No 19 & 20, Subhash Park, Civil Lines  - 124 001, Haryana",28.89272,76.60492
Haryana,Kurukshetra,Pehowa,"Ambala Hissar Road, Near Bus Stand, Pehowa - 136 128, Haryana",29.98429,76.58522
Haryana,Jhajjar,Jhajjar,"Old Burf Khanna Road, Behind Bus Stand, Near Deshwal Food Point, Jhajjar-124103, Haryana",28.60791,76.64827
Haryana,Panchkula,Panchkula (Sec 9),"Ground Floor, S.C.O. No. 321-P, Sec-9, Panchkula-134 109, Haryana",30.69491,76.84998
Haryana,Gurgaon,"Sec. 14, Gurgaon","S.C.O. No. 7, Sector 14, Gurgaon - 122 001, Haryana, Haryana",28.47297,77.04827
Haryana,Faridabad,Faridabad,"SCO no. 10, Sector - 16, HUDA Commercial Complex, Faridabad - 121 002, Haryana,Haryana",28.41165,77.32
Haryana,Gurgaon,Manesar,"Shop No 2&3, Eros Tower, IMT Manesar, Gurgaon 122001, Haryana",28.36402,76.93516
Haryana,Gurgaon,"Sohna Road, Gurgaon","Omaxe City Centre, Shop No 12A Sector 49 Gurgaon 122002, Haryana",28.41267,77.04256
Haryana,Panchkula,Barwala,"Shop no 1, Bansal Complex,Main Road, Barwala,Dist Panchkula, Haryana 134 118, Haryana",30.55653,76.93864
Haryana,Gurgaon,Sushant Lok,"Bestech Centre Point, LG 7, 8 & 9, A Block,Sushant Lok-1, Gurgaon, Haryana 122002, Haryana",28.46836,77.07462
Haryana,Gurgaon,Golf Course Road,"GF,Shop No G2, Suncity Business Tower, Sec-54, Golf Course Rd, Gurgaon, Haryana 122 002, Haryana",28.43344,77.10565
Haryana,Sonipat,Kundli,"SCO No. 30, Shopping Complex HSIIDC, Phase-I, Kundli, Dist. Sonepat, Haryana 131 028, Haryana",28.87137,77.12743
Haryana,Rewari,Rewari,"Basement & Ground Floor, SCO No. 2, Brass Market, Opp. LIC Bldg, Rewari, Haryana 123 401, Haryana",28.192536,76.624027
Haryana,Gurgaon,SadarBazar-Gurgaon,"Ground Floor, # 646/9, Subhash Nagar,Old Railway Road, Kabir Bhawan Chowk, Sadar Bazaar, Gurgaon, Haryana 122 001, Haryana",28.4628,77.02324
Haryana,Mewat,Panchgaon (Pachgaon),"Ground Floor, Tauru Road, Village Fajiluas( Panchgaon), Teh: Manesar, Dist Gurgaon, Haryana122413, Haryana",28.32481,76.89944
Haryana,Kurukshetra,Pipli Majra,"Ground Floor, Gita Dwar, Kurushetra Road, Pipli Majra, (Kurushetra Distt. Haryana) 132131, Haryana",30.06868,76.71979
Haryana,Karnal,Assandh,"Opp to Grain Market, Karnal Road, next to Yash Restaurant, Assandh, Dist - Karnal, Haryana 132039, Haryana",29.52727,76.61245
Haryana,Panipat,Israna,"Ground Floor, Shop No 82 & 83, Waka Moti Mandi, Israna, Dist: Panipat, Haryana 132 107, Haryana",29.27874,76.85055
Haryana,Ambala,Dhakola,"Ground Floor, House No 253, Shahbad Road, Dhakola Village & PO:Dhakola- 133 104, Saha, Dist:Ambala, Haryana",30.29689,76.96258
Haryana,Yamunanagar,Chachrauli (MC),"Ground & first Floor, Deep Market, Chhachrauli- 135103, Dist: Yamuna Nagar, Haryana,Haryana",30.23819,77.35808
Haryana,Karnal,Nigdhu,"Ground floor, Nilokheri-Dhand Road, Mail Chowk, Nighdu, Distt.Karnal, Haryana 132157, Haryana",29.83771,76.73694
Haryana,Ambala,Kalarheri,"Naraingarh Road, Defence Colony, Village Kalarheri, Dist. Ambala Cant, Haryana -133001, Haryana",30.3828,76.86222
Haryana,Gurgaon,"OJ Complex, Sec-15, Gurgaon","SCO-57,Old Judiciary Complex,Sector-15,Civil Lines,Gurgaon,Haryana 122001, Haryana",28.45886,77.03417
Haryana,Gurgaon,"Udyog Vihar, Gurgaon","Vanijya Kunj 1,2,15,16, Enkay Tower, Udyog Vihar, Phase V, Gurgaon, UP 122001, Haryana",28.497483,77.086463
Haryana,Gurgaon,"Sector 31, Gurgaon","SCO-8, Sector31/32A Main HUDA Market, Gurgaon, Haryana 122002, Haryana",28.45283,77.05006
Haryana,Gurgaon,"Sector 10, Gurgaon","Ground + 1st Floors, SCO-3, Sector-10A, Gurgaon, Haryana 122 001, Haryana",28.44426,77.0115
Haryana,Gurgaon,"Badshahpur, Gurgaon",Ground Floor (Right Side ) MD Tower Khatouni no 468 Sohana Road badshahpur Gurgaon -122 001 Haryana,28.39589,77.04582
Haryana,Gurgaon,"Sec. 57, Gurgaon","Ground Floor( Shop no G-5) & Upper Ground floor ( Shop No UG-5), Bestech Central Square,  Block-G, Sector-57, Sushant Lok-II, Gurgaon, Haryana 122 002, Haryana",28.42171,77.09027
Haryana,Yamunanagar,Ror Chhappar,"Ground Floor,Kh 12/12,Main Road,Ror Chappar,Post Aurangabad,Teh Jagadhri,Dist Yamuna Nagar,Haryana, Haryana",30.10761,77.22681
Haryana,Ambala,Maujgarh,"Ground floor,Kh 47/1 & 73/1,Main Road, Maujgarh,Post Rajouli, Dist Ambala, Haryana, Haryana",30.22297,77.02927
Haryana,Yamunanagar,Bahadurpur,"Shop . 27 & 28,at Khewat .185,Khatoni .218,Khasra ..24/10/11/2/2/2/1,11/2 & 24/2,HB .164,Village Bahadurpur,Mauja Bahadurpur, PO Khirzabad,Tehsil Chhachhrauli,Dist. Yamuna Nagar,Haryana",30.28845,77.50515
Haryana,Kaithal,Jagdishpura,"Bungalow 182,Main Road,Village Jagdishpura,P.O. Kultaran,Teh & Dist. Kurukshetra,Haryana, Haryana",29.82264,76.43826
Haryana,Kurukshetra,Chammo Kalan/Chamun,"Ground Floor Sarawasti Enclave Ambala Hissar Road Village Chammu Kalan P/O. Tehsil Ismailabad Dist Kurushetra Haryana, Haryana",30.14351,76.66045
Haryana,Sirsa,Farwain,"Ground Floor,Shop on Plot Khewat .694 Khasara 889 K h 321 inkaal 3534 Farwain Kalan Post Farwain Kalan Haryana, Haryana",29.6099,75.11095
Haryana,Karnal,Nagla Megha,"Khatoni-244, Khasra Number -16, Merut Road, Village & Post Office Nagla Megha, Tehsil & District: Karnal, Haryana 132001",29.6324,77.0737
Haryana,Rewari,"Majra, Mutsal Bhalaki","GROUND FLOOR, KH No 31, HASTBAND No 36,VILLAGE MAJRA, REWARI, HARYANA 123102",28.160216,76.414389
Haryana,Panipat,Faridpur,"Ground Floor, Khewat No. 57, Khatauni No. 62, Kila No-24/8/1/1, Village  Faridpur, P.O. Kabri, Dist. Panipat, Haryana- 132103",29.43706,76.95275
Haryana,Gurgaon,"Sec. 47, Malibu Town, Gurgaon","Ground Floor,Shop 3 & 11,ood Earth City CentreSouth City-Malibu Town,Gurgaon,Haryana, Haryana",28.42164,77.05319
Haryana,Panchkula,"Sec. 20, Panchkula","Ground floor,SCO # 396,Sector 20,Panchkula,Haryana, Haryana",30.67205,76.8553
Haryana,Yamunanagar,Manbharwala,"Ground Floor,Shop 2a/3,Main Road Village Manbhrwala Post -Dvdhar Tehsil Chhachrauli Dist Yamuna Nagar Haryana, Haryana",30.22809,77.44548
Haryana,Karnal,Niawal,"Ground floor on Khewat 246,Khatoni 305,Rect 53,Killa 15/1 (0-16) situated in Village Naiwal,Teh & Dist Karnal., Haryana",29.72623,77.05385
Haryana,Sirsa,Sanghar Sarishta,"Ground Floor,Shop on Kh..196/181,Khatauni .315,Next to Mandir Trust Premises,Main Road,Village Sangar Sarista,Post Office Bahaudin,,Haryana, Haryana",29.56868,75.18184
Haryana,Karnal,Jalmana,"Ground Floor,Village &PO Jalmana,Karnal- Assandh Road,Near IOCL Petrol Pump,Teh Assandh,Dist Karnal,Haryana, Haryana",29.59018,76.70798
Haryana,Panchkula,Raipur Rani,"Khewat No. 375 Khatauni No. 418 Khasra No 66//14/2 (1-1) Situated at Mouja Raipur Rani, HB No. 6, Tehsil Raipur Rani, Panchkula Near Indian Oil Petrol Pump, Raipur Rani, Panchkula, Haryana 134204",30.5729,77.01577
Haryana,Kurukshetra,Barna,"TERII campus,9 th Milestone,Village P;O Barna aithal Road Kurukshetra,Haryana, Haryana",29.90864,76.72987
Haryana,Panipat,Machhrouli,"Ground Floor,House-123,Main road,Valmaki Chowk,Chopal Gali,village Machhrouli,Teh Samalkhan,Dist.Panipat,Haryana, Haryana",29.28398,77.00944
Haryana,Rohtak,Lakhan Majra,"Ground Floor,Khewat .726,Khatoni .1262,Khasra .846(0-8) opposite Gurudwara,Rohtak Road,Mauja Lakhan Majra,Dist. Rohtak,Haryana, Haryana",29.04359,76.47616
Haryana,Yamunanagar,Mustafabad,"Ground Floor,Shop On Main Road,inside Abadi,Old Abadi,Mustafabad,Teh:Jagadhari,Dist,Yamuna Nagar,Haryana, Haryana",30.20986,77.14704
Haryana,Fatehabad,Dariyapur/Daryapur,"Ground Floor, Shop on Kh -92/120/1/2/2 (0-11),Dariyapur Main Road, Village& PO: Dariyapur, Tehsil & Dist: Fatehabad-125050 Haryana, Haryana",29.52468,75.35462
Haryana,Sirsa,Mallekan Mandi,"Shop No 63, Aanaj Mandi Market Committee, Mallekan Mandi, Haryana, Haryana",29.43558,74.88059
Haryana,Gurgaon,"Sec. 23, Gurgaon","Ground & Basement,SCO-41,Sector-23,HUDA Market,Gurgaon,Haryana, Haryana",28.51063,77.04842
Haryana,Faridabad,"Sec. 21, Faridabad","Ground & 1st Floor,SCO .142,Main Market,Sector 21-C,Faridabad,Haryana, Haryana",28.43083,77.29621
Haryana,Gurgaon,"Sec. 4, Gurgaon","Ground & First Floor,SCF - 31,Sector- 4,Urban Estate,Gurgaon,Haryana, Haryana",28.47373,77.00925
Haryana,Gurgaon,DLF Phase III- Gurgaon,"Shop . GF-16 & FF-16,JMD Regent Plaza,DLF-PHASE II,M.G Road,Gurgaon,Haryana, Haryana",28.48124,77.10058
Haryana,Gurgaon,"Arjun Marg, Gurgaon","Shop .15 & 16,Shopping Mall,Arjun Marg,DLF,Phase 1,Gurgaon,Haryana, Haryana",28.46627,77.09916
Haryana,Faridabad,"NIT, Faridabad","Ground Floor,1-A/268,NIT,New township,Neelam Bata Road,Faridabad,Haryana, Haryana",28.38561,77.30669
Haryana,Gurgaon,"Sec. 45, Gurgaon","Ground Floor, Unit No. 4B, Building Block A, Unitech Cyber Park, Sector-39, Gurgaon 122002",28.4431286,77.0541062
Haryana,Gurgaon,"Golf Course Extn Sec 66, Gurgaon","Ground Floor Unit no 1A, Emaar Palm Square, Golf Course Extension Road Sector 66 – Gurgaon 122002",28.402506,77.0501346
Haryana,Gurgaon,"Sec 56, Gurgaon","Ground Floor,SCO 61,DSC( HUDA Market),Sector 55-56,Gurgaon 122011,Haryana, Haryana",28.42837,77.09879
Haryana,Panipat,Panipat,"Ground Floor, Amrit Handloom Bldg,  Sanjay Chowk, G T Karnal Road, Khasra No.3675, Panipat- 132 103, Haryana, Haryana",29.38562,76.97153
Haryana,Gurgaon,IFFCO Chowk- Gurgaon,"Shop No 9, Ground Floor, ABW Tower, IFFCO Chowk, Gurgaon, Haryana , Haryana",28.47868,77.07153
Haryana,Gurgaon,"Sec. 17, Gurgaon","SCF - 61, HUDA Market, Sector - 17, Gurgaon, Haryana, Haryana",28.47828,77.06089
Haryana,Gurgaon,"Palam Vihar, Gurgaon","Ground Floor Shop No - G-18 and  Upper Ground floor Shop No UG-122,  Palam Corporate Plaza, Palam Vihar, Gurgaon-122017,Haryana  , Haryana",28.49728,77.02135
Haryana,Fatehabad,Fatehabad,"Ground Floor, Khasara No. 713 G T Road, Fatehabad Distt: Fatehabad- 125050, Haryana, Haryana",29.51397,75.45
Haryana,Gurgaon,"Sec. 15, Gurgaon","Ground and First Floor, SCO No. 29, Sector-15, Part II, HUDA Market, Gurgaon, Haryana, Haryana",28.457984,77.044186
Haryana,Gurgaon,"Palm Springs Plaza, Gurgaon","Ground Floor, G-015& G-016, Palms Springs Plaza, Golf Course Road, Sector-54, Gurgaon-122 002, Haryana",28.445289,77.101362
Haryana,Yamunanagar,Yamunanagar,"Ground Floor, B-4/2131, Jagdhari Road, Opp. Dev Market, Yamuna Nagar- 135001, Haryana",30.1395,77.26879
Haryana,Sirsa,Sirsa,"Ground Floor, 17/619, Block-17, Janta Bhawan Road, Sirsa- 125 055, Haryana",29.542047,75.027437
Haryana,Kurukshetra,BAGTHALA,"Ground Floor, VPO- Bagthala, Tehsil- Thanesar, Dist- Kurushetra, Haryana- 136119, Haryana",30.000026,76.731318
Haryana,Fatehabad,Dholu,"khewat number is 25/102, Near Bus Stand, Vill. Dholu, Tehsil Bhuna, Distt. Fatehabad, Haryana-125111, Haryana",29.595342,75.673805
Haryana,Fatehabad,Lali,"Ground Floor, Khewat No-260/261, Near High School, Ratia Road, Lali, Teh Ratia, Distt. Fatehabad, Haryana -125051, Haryana",29.700117,75.517445
Haryana,Fatehabad,Bahmanwala,"Ground Floor, 237/4, Main Chowk, Village & Post- Bahmanwala, Tehsil-Ratia, Fatehabad, Haryana- 125051, Haryana",29.761219,75.543235
Haryana,Kaithal,BHUSLA,"Ground Floor, VPO- Bhusla, Tehsil &Guhla, Dist- Khaital, Haryana -136034,Haryana",30.09837,76.448968
Haryana,Gurgaon,Qutub Plaza DLF Phase 1 Gurgaon,"Ground Floor, Shop No -F1 to F4, Qutub Plaza, DLF Phase -1, Gurgaon, Haryana, India- 122001",28.471376,77.101896
Haryana,Ambala,Ambala City,"Ground Floor, Plot No-98, Block B-8,Prem Nagar,Ambala City, Haryana -134003",30.367554,76.787329
Haryana,Bhiwani,Bhiwani,"Ground Floor,  Unit No. 177 B & C, Dr. D.S. Chaudhary Complex, Circular Road, Near Old Bus Stand, Bhiwani -127021, Haryana",28.80039,76.140073
Haryana,Sonipat,Sonepat/Sonipat,"Ground Floor, 208L, BulBul Palace, Model Town, Atlas Road, Near Minerwa Cinema, Sonepat -131001, Haryana",28.987703,77.020737
Haryana,Faridabad,"Sec. 15, Faridabad","Ground Floor, SCF-59 & 60, Sector-15, Urban Estate, Faridabad, Haryana, India - 121007",28.395123,77.323339
Haryana,Ambala,Ambala Cantt,"Ground & First Floor, 6275/34-35, Nicholson Road, Ambala Cantonment, Haryana, PIN : 133001",30.340341,76.841597
Haryana,Fatehabad,Babanpur,"Ground Floor, At Post Babanpur,  Tehsil: Ratia, District: Fatehabad, Haryana – 125051",29.738554,75.684328
Haryana,Sirsa,Ahamadpur,"Ground Floor, At Post: Ahmedpur, Teh. & Dist.: Sirsa, Haryana 125055",29.568505,74.989791
Haryana,Sirsa,Bhangu,"Ground Floor At Post: Bhangu, Sirsa, Haryana 125077",29.663068,74.997875
Haryana,Hissar,Prabhuwala,"Ground Floor H.No.544,  Village Prabhuwala,  Teh:  Barwala, Hisar, Haryana - 125113",29.489806,75.903039
Haryana,Hissar,Kohali,"Ground Floor, Khewat no. 48, Khasra no. 363, Village Kohali, Tehsil : Adampur, Dist : Hisar, Haryana - 125052",29.280716,75.520337
Haryana,Hissar,Kirmara,"Ground Floor, Khewat no. 273/248, Khasra no. 1049-1030-491, Village-Kirmara, Tehsil & Dist : Hisar, Haryana - 125047",29.380395,75.702047
Haryana,Hissar,Mattersham,"Ground Floor, Khewat no. 50, Khatauni no. 59, Village - Mattersham, Tehsil & Dist Hisar, Haryana - 125001",29.158474,75.720659
Haryana,Gurgaon,Sohna,"Ground Floor, Rect. No-219, Kila No-14 & 13/2 ( 2-16), Ward No-5 Main Delhi- Alwar Road, Opp. Main Bus Stand, Sohna, Dist-Gurgaon, HARYANA, 122103",28.246205,77.072895
Haryana,Gurgaon,"Nirvana Country, Gurgaon","Ground  Floor, Shop no.12, 20 and 21, Block –A, Nirvana Courtyard, Nirvana Country, Sector-49, South City – II, Phase II, Gurgaon, HARYANA, 122001",28.414073,77.065927
Haryana,Karnal,"Sham Nagar, Old GT Road, Karnal","Ground Floor, Khewat No.1343/1356, Khatoni No.2170, Khasra No.4102 min(0-18) Sham Nagar, Old G. T. Road, Karnal – 132001, Haryana",29.670432,76.990944
Haryana,Rohtak,"Sheela Bypass, Rohtak","Ground Floor, Petals,  Opp. Sheela Cinema, Sheela Bypass, Sonepat Road, Rohtak Haryana-124001",28.89565,76.607676
Haryana,Panchkula,"Sector 16, Panchkula","Ground Floor, SCO -6, Sector -16, Panchkula, Haryana- 134109",30.695436,76.839689
Haryana,Palwal,"Palwal, Haryana","Ground Floor, Khasara no. 1693/7, New colony road, Near Agra chowk, Palwal, Haryana-121102",28.135167,77.329988
Haryana,Kaithal,"Kaithal, Haryana","Ground Floor, Plot No.4 & 5, Khewat No.310, Khatoni No.426,427,428, Khasara no.561,560/2, MCK No.677-678/10, State Bank Road, Near Pehowa Chowk, Bank Colony, Distt. Kaithal, Haryana-136027",29.802225,76.403336
Haryana,Gurgaon,Horizon Tower 2 DLF Phase V Gurgaon,"Ground Floor, Unit No – 1 A, Horizon Tower 2, DLF Phase V, Gurgaon, Haryana 122001",28.45098,77.096505
Haryana,Gurgaon,Unitech Trade Centre Tower Sushant Lok Gurgaon,"Ground Floor, Unitech Trade Centre, Unit No. 4C, Sushant Lok, Phase-1, Gurgaon, Haryana- 122002",28.459047,77.076892
Haryana,Mahendragarh,Narnaul,"Ground Floor, Plot No. 114A, Shiv Colony, Ward No. 01, Mahendergarh Road, Narnaul, Dist. Mahendergarh- 123001, Haryana",28.058679,76.10754
Haryana,Bhiwani,Charkhi Dadri Haryana,"Ground Floor, Ghikara Road (Hari Nagar Colony), Opp. PWD Rest House, Rohtak Road, Charkhi Dardhi, Pin 127 306, Haryana",28.592062,76.265289
Haryana,Gurgaon,"Sector 22, Gurgaon","Ground & First Floor, SCO No.81, Sector- 22  Market,  Urban Estate, Palam Vihar Road, Opp. Rotary Public School, Gurgaon -122015, Haryana",28.502162,77.062712
Haryana,Gurgaon,Sector 58 Gurgaon,"Ground Floor (UGF), Magnum Tower-1, Golf Course Extension Road, Sector-58, Gurgaon 122001 Haryana",28.411342,77.108386
Haryana,Yamunanagar,Jagadhari,"Ground Floor, Khasra No. 69/37, Ambala Road, Jagadhari, Haryana, Pin 135001",30.16672,77.29427
Haryana,Gurgaon,DLF Cross Point Gurgaon,"Ground Floor, Unit No-21, DLF Cross Point (Opp Galleria Market), DLF Phase IV, Gurugram Pincode 122002 Haryana",28.468348,77.082814
Haryana,Gurgaon,Sector 83 Gurgaon,"Ground Floor, Shop No. 16 & 17, Sapphire Building, Sector -83, Gurgaon, Pin code 122004 Haryana",28.392371,76.967326
Haryana,Gurgaon,Sector 5 Gurgaon,"Ground, Basement &  First Floor, DSS Plot No. 46, Main Huda Market, _x000D_
Sector -5, Urban Estate, Gurugram_x000D_
Pin code 122001, Haryana",28.480169,77.021069
Haryana,Gurgaon,Sector 46 Gurgaon,"Ground & Basement Floor, SCO No. 118, Sector 46, Gurugram, Haryana, PIN: 122002",28.434109,77.059023
Haryana,Jhajjar,Bahadurgarh,"Ground Floor, Khasra No.208, Metro Pillar No. 863, Delhi Rohtak Road, Bahadurgarh, Haryana - 124507",28.69364,76.909353
HARYANA,Sirsa,Mandi Dabwali,"Ground Floor, 654, Chautala Road, Mandi Dabwali, District Sirsa, Haryana, PIN: 125104",29.858991,74.701205
Haryana,Abmala city,Ambala City Cloth Market,"Ground Floor, Khasra No. 400/2/2, Patti Mehra, Cloth Market, Aggarsain Chowk, Ambala City, Haryana, PIN: 134003",30.375608,76.773157
Haryana,Sonipet,Gohana,"Ground Floor, 166, Mahavir Chowk, Gohana, District Sonipet, Haryana, PIN: 131301",29.13888,76.70066
Haryana,Rewari,Circular Road Rewari,"Ground Floor, 3328/2A, Opp. Jain Public School, Circular Road, Rewari, PIN: 123401, Haryana",28.203353,76.62095
Haryana,Jind,Jind,"Ground Floor, SCO-11, District Shopping Centre, Jind, Haryana Pin 126102",29.311569,76.341039
Haryana,Sonipat,Sector 14 Sonipat (Sonepat),"Ground & First Floor, SCF -8, Main Market, Sector -14, Sonipat, PIN: 131001, Haryana",28.9970838,77.0311847
Haryana,Gurgaon,Sector 40 Gurgaon,"Ground, Basement & First Floor, DSS No. 82, Main Market, Sector 40, Gurgaon 122002, Haryana",28.448752,77.057064
Haryana,Panchkula,"Sector 7, Panchkula","Ground & Basement Floor, SCO No. 75, Sector-7, Panchkula, Haryana PANCHKULA HARYANA 134114",30.70687,76.845153
Haryana,Panchkula,"MDC, Sector 5 Panchkula","Ground & Basement Floor, SCO No. 124, Sector-5, MDC, Panchkula, Haryana 134114",30.71323273,76.84946352
Haryana,Gurgaon,Pataudi,"Ground Floor, Premises Near Shiv Murti, Ward No.1, Hailey Mandi Road, Pataudi, Gurugram Haryana 122503",28.329773,76.776329
Haryana,Gurgaon,"Sector 9, Huda Market, Gurgaon","Ground & First Floor, SCO No. 202, Sector 9, Huda Market, Gurugram, Haryana Pin 122001",28.46548,76.99533
Haryana,Gurgaon,Gwal Pahari Gurgaon,"Ground Floor, GR/083/084, Paras Trade Centre, Sector 2, Gwal Pahari, Gurugram Haryana, PIN: 122005",28.4367097,77.1350263
Haryana,Panipat,"Model Town, Panipat","Ground Floor, 78 R, Model Town, Near Gurudwara, Panipat, Haryana PIN:132103",29.390252,76.95897
Haryana,GURGAON,"Ocus Quantum, Sector 51, Gurgaon","Ground & Mezzanine Floor, Ocus Quantum, Sector-51, Gurugram, Haryana 122413",28.4247975,77.0686519
Haryana,HISAR,"Sector 13, Hissar","Ground Floor & Basement, SCO 32, Sector 13, Tosham Road, Hissar 125004, Haryana",29.135044,75.738533
Haryana,GURGAON,"M3M Tea point,Gurgaon Sec 65","Ground Floor, Unit No. R-1-001, “M3M Tee Point”, Sector-65 Gurugram, Haryana - 122002",28.3977,77.06511
Haryana,FARIDABAD,Faridabad Sector 37,"Ground and First Floor. SCF- 145, Sector-37, Faridabad, Haryana - 121003",28.479892,77.309379
Haryana,FARIDABAD,Faridabad Sector 29,"Ground Floor, SCO 49 & 50, Sector-29, Huda Market, Faridabad, Haryana - 121008",28.434494,77.322983
Haryana,GURGAON,"Tata Intellion Edge, Gurgaon Sec 72","Ground Floor, A003, Tower A, Intellion Edge, Sec 72, Gurugram, Haryana - 122001",28.402259,77.039519
Haryana,GURGAON,"SS Omnia, Sec 86, Gurgaon","Ground Floor, Unit No. 3, ""SS Omnia"", Sector-86, Gurugram, Haryana - 122001",28.401369,76.947222
Haryana,GURGAON,"Conscient One, Sec 109, Gurgaon","Ground Floor, Conscient One, Sector 109, Gurugram, Haryana - 122017",28.502993,77.006717
Haryana,FARIDABAD,"NIT -II, Faridabad","Ground Floor, Crown Complex , NIT  Faridabad, Faridabad, Haryana - 121001",28.380256,77.297317
Haryana,GURGAON,"Sector 69, Gurugram","Ground Floor, Tower A, Spaze Corporate Park, Sector 69, Gurugram, Haryana - 122101",28.3950049,77.031283
HARYANA,Bhiwani,"Meham Road , Vidya nagar, bhiwani","Meham Road Bhiwani Ground Floor , Bulbul Complex, Chokhani Esate, vidaya Ngar, Bhiwani, Haryana - 127021",28.80394,76.14836
HARYANA,Gurgaon,"New Railway Road, Gurgaon","Ground Floor, Plot No -1026 , Subash Nagar , New Railway Road , Gurgaon , Haryana -122001",28.46762,77.02683
HARYANA,Sonipat,"Ganaur, Sonipat","Ground Floor, Shop No. 42, 43 & 44 , Pahuja Furniture,  Railway Road , Ganaur, District Sonipat, Pin 131101 , Haryana",29.13805,77.02574
HARYANA,Gurgaon,Emaar Emerald Plaza Sector 65,"Ground floor, Shop No-105 & 106, Emaar Emerald Plaza, Golf Course Ext Road, Gurgaon Sec 65, Haryana - 122101",28.406067,77.067863
HARYANA,Gurgaon,"Eros City Square, Sec 49, Gurgaon","Ground Floor, Shop No. 80 -81 , Eros City Square , Vikas Marg , Gurgaon Sec-49 , Pin 122018, Haryana – 122018",28.41258,77.05555
HARYANA,Gurgaon,"Sec 23 A, Gurgaon","Shop No:- GF -47-P, Huda Market , Gurgaon Sec-23-23-A , Pin 122017, Haryana",28.503847,77.054057
HARYANA,Sonipat,"Kharkhoda, Sonipat","GROUND FLOOR, SHIV CHOWK, KHARKHODA, HARYANA PIN 131402",28.88242,77.91725
HARYANA,Faridabad,"Omaxe World Street, Faridabad","SHOP NO 145, OMAXE WORLD STREET FARIDABAD SECTOR 79 HARYANA 121004",28.387344,77.354218
Haryana,Bhiwani,Specialised Br Tosham,"Ground floor, House No 2363, Opp HDFC Bank Ltd, Siwani Road VPO Tosham, Bhiwani, Haryana 127040",28.867257,75.916038
Haryana,Mahendragarh,Specialised Br Mahendergarh,"Ground Floor, Opp. Canara Bank, Dadri Road, Mahendergarh, Haryana, 123029",28.53148,76.22582
Haryana,Rewari,Specialised Br Bawal,"Ground Floor, Rewari Road, Near Bijli Board, Bawal, Rewari, Haryana 123501",28.075736,76.584711
Haryana,Sonipat,Specialised Br Gohana,"First Floor, Opp. Truck Union, Near New Bus Stand, Gohana, Haryana 131301",29.132949,76.70461
HARYANA,Gurgaon,"Sector 30, Gurgaon","INDUSIND BANK LIMITED, UNIT. 22 DLF, SECTOR – 30,  STAR TOWER, GURUGRAM, HARYANA - 122022",0,0
HARYANA,Faridabad,"Sector 7, Faridabad","GROUND FLOOR, SCF NO-60, HUDA MARKET, SEC-7, FARIDABAD, HARYANA - 121006",28.36366,77.32408
Haryana,Dabwali,Specialised Br Mandi Dabwali,"1st Floor, Dureja Complex, Opp. Civil Hospital, Chautala Road, Mandi Dabwali, Sirsa, Haryana 125104",29.967102,74.700134
Haryana,Hansi,Specialised Br Hansi,"First Floor, Sihage Complex, Opp Orion Hundai Show Room, GT Road, Near Court, Hansi, Haryana 125033",29.091852,75.977023
Haryana,Hisar,Specialised Br Hissar,"First Floor, JK Industries, Delhi Road, Near Tata Telmos, Hisar, Haryana 125001",29.131823,75.761439
Haryana,Karnal,Specialised Br Karnal,"2nd Floor, SCO 222, Sector 12, Urban Estate, Karnal, Haryana 132001",29.69484,77.001826
Haryana,Narwana,Specialised Br Narwana,"1st Floor Winner Association, Subhash nagar, Narwana, Jind Road, Haryana 126116",29.590279,76.129541
HARYANA,Karnal,"Sector-7, Karnal","SCO 100 URBAN ESTATE, SECTOR 7 KARNAL, HARYANA - 132001",29.6868070842342,77.0106420083983
HARYANA,Hisar,Hansi,"GROUND FLOOR, G.T. ROAD, UTTAM NAGAR, ADJACENT TO GANESH LODGE, HANSI, HARYANA – 125033",29.0939717401528,75.959821302372
HARYANA,Gurgaon,"Golf Avenue, Sector 42, Gurgaon","GROUND FLOOR, SCO No 1-2,HUDA SCO,SECTOR 42, GOLF AVENUE ,GOLF COURSE ROAD, GURGAON,HARYANA 122009",28.4627414,77.0958337
Himachal Pradesh,Shimla,Shimla,"Shop No 15, Megna Complex, Block A - 1st Floor, Combermere House, Near Lift, The Mall, Shimla HP 171001",31.10264,77.17756
Himachal Pradesh,Solan,Baddi,"GTM Towers (Near Sagar Ratna), Nalagarh Road, Baddi - 172 305, Himachal Pradesh",30.92772,76.79094
Himachal Pradesh,Solan,Solan,"Ground and First Floor, Shop no 3 & 4, Dang Complex, Rajgarh Road, Solan- 173 211, Himachal Pradesh",30.907717,77.101608
Himachal Pradesh,Kanda,Kangra,"Ground Floor,  Jaswal Complex, Khasra Nos. 1769/708, 1770/708, Opp. Rajput Sabha, Dharamshala Road, Kangra- 176 001, Himachal Pradesh",32.104219,76.273559
Himachal Pradesh,Mandi,Mandi Himachal Pradesh,"Ground Floor, Khewat No. 255, Khatauni no. 282, Khasra Nos. 1234, 1235 and 1236, situated at Mohan Mangwai-366/8, Ramnagar, Sadar, Mandi, Himachal Pradesh – 175001",31.700844,76.935344
Himachal Pradesh,Solan,"Nalagarh, Himachal Pradesh","Ground Floor, Khasra no 1127/533, Ward No. 2, Bassi Commercial Complex, Mini Secretariat, Ropar Baddi Road, Mohal Mini Secretariat, Nalagarh- 174101, Dist. Solan Himachal Pradesh",31.041247,76.716454
Himachal Pradesh,Shimla,"Sanjauli, Shimla","Third Floor, Kuthiala House, Khasra No. 871, 872 & 873, Khewat No. 185, Khatauni No. 205, Sanjauli, PO: Sanjauli, Dist: Shimla, Himachal Pradesh- 171006",31.103289,77.192782
Himachal Pradesh,Shimla,"Shoghi, Shimla","Ground Floor, Khasra No. 229, 229/1, VPO: Shoghi, Taluk & Dist: Shimla, Himachal Pradesh – 171219",31.039159,77.123451
Himachal Pradesh,Kullu,"Bhuntar, Himachal Pradesh","Ground Floor, Khasra 1825/1516/1411, Bhuntar, Bye-pass Road, Dist-Kullu -175125, Himachal Pradesh",31.882226,77.148224
Himachal Pradesh,Kangra,Palampur,"Second Floor (Road Level), Khasra No. 1401, Ward No. 5, Palampur, Dist Kangra, Himachal Pradesh 176061",32.109086,76.537562
Himachal Pradesh,Hamirpur,Hamirpur,"Ground Floor, Khasra No. 1972 to 1979, Ward no. 5, J.P. Chowk, Hamirpur- 177001, Himachal Pradesh",31.680784,76.524937
Himachal Pradesh,Kangra,Dharamshala,"Ground Floor, Khasra No. 3150, Mahal Civil Station, Mouza & Tehsil : Dharamshala, District Kangra, Himachal Pradesh Pin code 176215",32.12213,76.19284
HIMACHAL PRADESH,Una,Una,"Indusind  Bank Ltd  Amb Road Una Ground Floor The Kangan's, Ward NO-1 Opp Shree Ganesh Filling Station Arya Nagar Amb Road Una  - 174303  Himachal Pradesh",31.4685,76.2708
HIMACHAL PRADESH,Sirmaur,Nahan,"Indusind  Bank Ltd  Ground Floor, Yashwant Chowk ,  The Mall Road Nahan - 173001  Himachal Pradesh",30.5599,77.2954
HIMACHAL PRADESH,Sirmaur,Paonta Sahib,"Indusind  Bank Ltd  Ground Floor,Opp IDBI Bank Ltd, Main Gurudwara Road Paonta Sahib,Distt Sirmour HP - 173025",30.4453,77.62
HIMACHAL PRADESH,Mandi,Sundarnagar,"Indusind  Bank Ltd Ground Floor Opp SBI Bhojpur, Near Roshan Hotel, SunderNagar Dist Mandi Himachal Pardesh - 175002",31.5335,76.9049
HIMACHAL PRADESH,Chamba,Chamba,"Indusind  Bank Ltd  Near Shiv Niwas, Mohalla Mugla, P.O.Hardasspura, Chamba Himachal Pardesh - 176318",32.5533,76.1258
Himachal Pradesh,Una,Specialised Br Una,"Una City Centre, 1st Floor, Una Nangal Road, Una, Himachal Pradesh 174303",31.46855,76.271989
Himachal Pradesh,Mandi,Specialised Br Mandi,"1st Floor, Auto World Buliding, VPO Gutkar, Tehsil Sader, Mandi, Himachal Pradesh 175021",31.65456,76.944967
Himachal Pradesh,Bilaspur,Specialised Br Bilaspur,"H.No. 230/31, Top Floor, NH 21 Near Collage Chowk, Bilaspur, Himachal Pradesh 174001",31.342782,76.762666
Himachal Pradesh,Solan,Specialised Br Nalagarh,"Ground Floor, Shop No 8, Ropar Road, Near by Pick up Union, Nalagarh, Solan, Himachal Pradesh 174101",31.045232,76.707302
Himachal Pradesh,Shimla,Specialised Br Shimla,"3rd Floor, Amber Ville, Near D Park Hotel, Kachi Ghati Shimla , Himachal Pradesh 171010",31.0913,77.1392
Himachal Pradesh,Kangra,Specialised Br Kangra,"2nd Floor, Kalra Complex, Above IDBI Bank, Dharamshala Road, Birta, Kangra, Himachal Pradesh 176001",32.113696,76.280954
HIMACHAL PRADESH,ROHRU,ROHRU,"Indusind  Bank Ltd  1st Floor, Aditya Bhagwan House Near Judicial Complex, Ward no-7 ROHRU - 171207 HIMACHAL PARDESH",31.2046,77.7524
Jammu & Kashmir,Srinagar,Srinagar,"IndusInd Bank Limited, Mir Building, M.A Road Opposite Banquet Hall, Srinagar Jammu and Kashmir 190001",34.074054,74.819511
Jammu & Kashmir,Jammu,Jammu,"Gupta Towers/Plaza, Bahu Plaza, Jammu - 180 004, Jammu",32.70379,74.87286
Jammu & Kashmir,Jammu,"Residency Road, Jammu","Ground + 1st Floor, New Block,K.C. Plaza, Residency Road,Jammu, Jammu & Kashmir, Jammu & Kashmir",32.7286,74.86621
Jammu & Kashmir,Srinagar,"Burzulla, Srinagar, J&K - Noida","Ground Floor, 322 Min, Burzulla Bagaat,  Indira Gandhi Airport Road, Srinagar - 190005, Jammu & Kashmir",34.09412,74.79868
Jammu & Kashmir,Jammu,"Channi Himmat, Jammu","Ground Floor, Hema Complex, Main Road, Sector-3, Channi Himmat, Jammu, Jammu & Kashmir- 180015",32.69046,74.889282
Jammu & Kashmir,Reasi,Katra,"Ground Floor, Ashirwad Bhawan, Niharika Complex, Near Bus Stand Bypass, Katra,  PIN 182320, Jammu & Kashmir",32.992582,74.925931
Jammu & Kashmir,Kathua,Kathua,"Ground Floor, Ward No. 4, College Road, Kathua, Jammu and Kashmir",32.378387,75.522422
Jammu & Kashmir,Doda,"Doda, Jammu & Kashmir","Ground  Floor, Shop No. 3,4,5,6, Opp.Municipal Office, Bharat Road, Doda, District Doda, Jammu & Kashmir, Pin 182202",33.72585,75.15284
Jammu & Kashmir,Udhampur,"Udhampur, Jammu & Kashmir","Upper Ground Floor, Ward No. 15, Venus Chowk, Dhar Road, Udhampur,  District Udhampur, UT: Jammu and Kashmir, PIN:182101",32.9165507,75.1305043
Jammu & Kashmir,Samba,"Samba, Jammu","Ground & First Floor, Mandi Kotli Bus Stand, Ward No. 04, Khasra No. 25, Samba, District Samba, Union Territory of Jammu & Kashmir, PIN: 184121",32.528392,75.120053
Jammu & Kashmir,Reasi,"Reasi, Jammu","Ground Floor, Ward No. 04, Khasra No. 315, Main Katra Reasi Road, Reasi, District Reasi, UT of Jammu and Kashmir, PIN 182311",33.082806,74.833313
Jammu & Kashmir,Srinagar,Jawahar Nagar,"Ground Floor, Plot No.64, Jawahar Nagar Main Road, Srinagar, UT of Jammu & Kashmir, PIN: 190008",34.062146,74.816003
Jammu & Kashmir,Kulgam,"Kulgam, J&K","Ground Floor, Mir Building, College Road, Near SBI, Kulgam, Jammu & Kashmir 192231",33.646105,75.011819
Jammu & Kashmir,Pulwama,"Pampore, J&K","Ground Floor Lalwani Brothers Complex, Main Chowk, Opp. Stadium, Pampore, Srinagar, UT of Jammu & Kashmir 192121",33.015999,74.912311
Jammu & Kashmir,Anantnag,"Anantnag, Lal Chowk, Jammu","Ground Floor, Ganjiwara, Achabal Adda, Anantnag, Jammu & Kashmir 192101",33.428016,75.150608
Jammu & Kashmir,Srinagar,"Karan Nagar, Srinagar","Ground Floor Municipality Road, Karan Nagar Srinagar UT of Jammu & Kashmir 190010",34.076,74.797722
Jammu & Kashmir,Rajouri,"Rajouri, Jammu","Ground Floor, Ward No. 02, Near DC office Rajouri, Jammu & Kashmir 185131",33.3716,74.3152
Jammu & Kashmir,Punch,"Poonch, Jammu","Ground Floor, Ward No. 11, Shankar Nagar Near Maruti Showroom Poonch, Jammu & Kashmir 185101",33.766987,74.092468
Jammu & Kashmir,Jammu,"Akhnoor, Jammu","Ground Floor, Ward No. 7, Jourian Road, Sangal Morh, Akhnoor, Jammu & Kashmir 181201",32.8995,74.7525
Jammu & Kashmir,Samba,"Bari Brahmana, Samba","Ground Floor, Ward No 6, Near SBI GT ROAD, Bari Brahmana, District: Samba, Jammu and Kashmir 181133",32.6365,74.9141
Jammu & Kashmir,Kishtwar,"Kuleed Chowk, Kishtwar, Jammu","Ground Floor, Shop No 1 & 2, NH Padder Road, Kuleed Chowk, Kishtwar,  Kishtwar, Jammu and Kashmir 182204",33.323779,75.762072
Jammu & Kashmir,Srinagar,"DAL GATE , J&K","Ground  Floor Near Masjid Sharif, Dal Gate Chowk, Dal Gate, Srinagar, UT of JAMMU & KASHMIR 190001",34.070761,74.804618
Jammu & Kashmir,Pulwama,Pulwama J&K,"Ground & First Floor, Sana Complex, Muran Chowk, Pulwama, UT of Jammu & Kashmir 192301",34.08314,74.797673
Jammu & Kashmir,Srinagar,"Hari Singh High Street, Srinagar","Ground Floor Panzoo Complex, Hari Singh, High Street, Srinagar, UT of Jammu & Kashmir 190001",34.070771,74.804329
Jammu & Kashmir,Baramula,"Baramulla, Srinagar","Ground & First Floor, Deewan Bagh, Near DC Office, Baramulla, District Baramulla, UT of Jammu & Kashmir 193101",34.11065,74.73226
Jammu & Kashmir,Baramula,"Sopore, Srinagar","Main Chowk Sopore New Light Complex, Sopore  UT-J&K - 193201",34.1703,74.28034
Jammu & Kashmir,Srinagar,"Saraf Kadal, Srinagar","Mallarata,Saraf Kadal,Srinagar J&K- Srinagar   UT-J&K 190002",34.1018,74.7981
JAMMU & KASHMIR,Leh(Ladakh),Leh,"Dmanzil Zangsti Road, Near SBI main Bazar Leh UT Ladakh, Leh-194101.",0,77.343764
JAMMU & KASHMIR,Kargil,"Kargil, Leh","Ground Floor Khasra No. 1514 Min 2406/1517, Min KARGIL   UT-LADAKH - 194103",34.3322806,76.7570252
